id	kakencode	mextcode	name	nameus	zip	address	tel	url	campus	note	lat	lon	source
1	10101	F101110100010	北海道大学	Hokkaido University	060-0808	北海道札幌市北区北8条西5丁目	011-716-2111	https://www.hokudai.ac.jp/	札幌キャンパス		43.077957	141.340013	国立大学協会：一般社団法人国立大学協会会員名簿2026，＜https://www.janu.jp/cms/wp-content/uploads/2026/04/meibo2026.pdf＞
2	10102	F101110100029	北海道教育大学	Hokkaido University of Education	002-8501	北海道札幌市北区あいの里5条3-1-3	011-778-0206	https://www.hokkyodai.ac.jp/	札幌校		43.168236	141.396082	国立大学協会：一般社団法人国立大学協会会員名簿2026，＜https://www.janu.jp/cms/wp-content/uploads/2026/04/meibo2026.pdf＞
3	10103	F101110100038	室蘭工業大学	Muroran Institute of Technology	050-8585	北海道室蘭市水元町27-1	0143-46-5000	https://muroran-it.ac.jp/			42.377848	141.033478	国立大学協会：一般社団法人国立大学協会会員名簿2026，＜https://www.janu.jp/cms/wp-content/uploads/2026/04/meibo2026.pdf＞
4	10104	F101110100047	小樽商科大学	Otaru University of Commerce	047-8501	北海道小樽市緑3丁目5番21号	0134-27-5206	https://www.otaru-uc.ac.jp/			43.190475	140.979663	国立大学協会：一般社団法人国立大学協会会員名簿2026，＜https://www.janu.jp/cms/wp-content/uploads/2026/04/meibo2026.pdf＞
5	10105	F101110100056	帯広畜産大学	Obihiro University of Agriculture and Veterinary Medicine	080-8555	北海道帯広市稲田町西2線11番地	0155-49-5216	https://www.obihiro.ac.jp/			42.875998	143.173171	国立大学協会：一般社団法人国立大学協会会員名簿2026，＜https://www.janu.jp/cms/wp-content/uploads/2026/04/meibo2026.pdf＞
6	10106	F101110100065	北見工業大学	Kitami Institute of Technology	090-8507	北海道北見市公園町165番地	0157-26-9113	https://www.kitami-it.ac.jp/			43.822847	143.905106	国立大学協会：一般社団法人国立大学協会会員名簿2026，＜https://www.janu.jp/cms/wp-content/uploads/2026/04/meibo2026.pdf＞
7	10107	F101110100074	旭川医科大学	Asahikawa Medical University	078-8510	北海道旭川市緑が丘東2条1-1-1	0166-65-2111	https://www.asahikawa-med.ac.jp/			43.729855	142.384141	国立大学協会：一般社団法人国立大学協会会員名簿2026，＜https://www.janu.jp/cms/wp-content/uploads/2026/04/meibo2026.pdf＞
8	20101	F101210100081	札幌医科大学	Sapporo Medical University	060-8556	北海道札幌市中央区南1条西17丁目	011-611-2111	https://web.sapmed.ac.jp/			43.055198	141.33214	公立大学協会：会員校一覧，＜https://www.kodaikyo.org/?page_id=718＞
9	20103	F101210100090	公立はこだて未来大学	Future University Hakodate	041-8655	北海道函館市亀田中野町116番地2	0138-34-6448	https://www.fun.ac.jp/			41.841817	140.766969	公立大学協会：会員校一覧，＜https://www.kodaikyo.org/?page_id=718＞
10	20102	F101210100107	釧路公立大学	Kushiro Public University of Economics	085-8585	北海道釧路市芦野4-1-1	0154-37-3211	https://www.kushiro-pu.ac.jp/			43.018379	144.39643	公立大学協会：会員校一覧，＜https://www.kodaikyo.org/?page_id=718＞
11	20104	F101210100116	名寄市立大学	Nayoro City University	096-8641	北海道名寄市西4条北8丁目1	01654-2-4194	https://nayoro.ac.jp/			44.364698	142.458361	公立大学協会：会員校一覧，＜https://www.kodaikyo.org/?page_id=718＞
12	20105	F101210100125	札幌市立大学	Sapporo City University	005-0864	北海道札幌市南区芸術の森1丁目	011-592-2300	https://www.scu.ac.jp/	芸術の森キャンパス		42.944639	141.340708	公式ウェブサイト（郵便番号相違）
13	20106	F101210100134	公立千歳科学技術大学	Chitose Institute of Science and Technology	066-8655	北海道千歳市美々758番地65	0123-27-6001	https://www.chitose.ac.jp/			42.793532	141.695993	公立大学協会：会員校一覧，＜https://www.kodaikyo.org/?page_id=718＞
14	20107	F101210100143	旭川市立大学	Asahikawa City University	079-8501	北海道旭川市永山3条23丁目1番9号	0166-48-3121	https://www.asahikawa-u.ac.jp/		2023年4月公立化（旧・旭川大学，Asahikawa University）	43.816109	142.445899	公立大学協会：会員校一覧，＜https://www.kodaikyo.org/?page_id=718＞
15	30102	F101310100141	札幌大学	Sapporo University	062-8520	北海道札幌市豊平区西岡3条7丁目3番1号	011-852-1181	https://www.sapporo-u.ac.jp/			43.010744	141.383641	公式ウェブサイト
16	30103	F101310100150	札幌学院大学	Sapporo Gakuin University	069-8555	北海道江別市文京台11	011-386-8111	https://www.sgu.ac.jp/	江別キャンパス		43.066588	141.493973	公式ウェブサイト
17	30104	F101310100169	函館大学	Hakodate University	042-0955	北海道函館市高丘町51番1号	0138-57-1181	https://www.hakodate-u.ac.jp/			41.788824	140.806344	公式ウェブサイト
18	30105	F101310100178	藤女子大学	Fuji Women’s University	001-0016	北海道札幌市北区北16条西2丁目	011-736-0311	https://www.fujijoshi.ac.jp/	北16条キャンパス		43.080005	141.350898	公式ウェブサイト
19	30106	F101310100187	北星学園大学	Hokusei Gakuen University	004-8631	北海道札幌市厚別区大谷地西2丁目3番1号	011-891-2731	https://www.hokusei.ac.jp/			43.024768	141.448726	公式ウェブサイト
20	30107	F101310100196	北海学園大学	Hokkai-Gakuen University	062-8605	北海道札幌市豊平区旭町4丁目1番40号	011-841-1161	https://www.hgu.jp/	豊平キャンパス		43.045026	141.368787	公式ウェブサイト
21	30108	F101310100203	北海道科学大学	Hokkaido University of Science	006-8585	北海道札幌市手稲区前田7条15丁目4-1	011-681-2161	https://www.hus.ac.jp/			43.135152	141.247203	公式ウェブサイト
22	30109	F101310100212	酪農学園大学	Rakuno Gakuen University	069-8501	北海道江別市文京台緑町582	011-386-1111	https://www.rakuno.ac.jp/			43.07329	141.51096	公式ウェブサイト
23	30110	F101310100230	北海道医療大学	Health Sciences University of Hokkaido	061-0293	北海道石狩郡当別町字金沢1757番地	0133-23-1211	https://www.hoku-iryo-u.ac.jp/	当別キャンパス	2028年校舎移転予定	43.231413	141.548781	公式ウェブサイト
24	30112	F101310100249	北海商科大学	Hokkai School of Commerce	062-8607	北海道札幌市豊平区豊平6条6丁目10	011-841-1161	https://www.hokkai.ac.jp/			43.048346	141.369854	公式ウェブサイト
25	30114	F101310100258	星槎道都大学	Seisa Dohto University	061-1196	北海道北広島市中の沢149	011-372-3111	https://www.seisadohto.ac.jp/			42.979444	141.542496	公式ウェブサイト
26	30115	F101310100267	北海道情報大学	Hokkaido Information University	069-8585	北海道江別市西野幌59番2	011-385-4411	https://www.do-johodai.ac.jp/			43.077836	141.537176	公式ウェブサイト
27	30116	F101310100276	札幌国際大学	Sapporo International University	004-8602	北海道札幌市清田区清田4条1丁目4-1	011-881-8844	https://www.siu.ac.jp/			43.000726	141.42616	公式ウェブサイト
28	30117	F101310100285	北翔大学	Hokusho University	069-8511	北海道江別市文京台23番	011-386-8011	https://www.hokusho-u.ac.jp/			43.0646224	141.4902794	公式ウェブサイト
29	30119	F101310100294	北洋大学	Hokuyo University	059-1266	北海道苫小牧市錦西町3丁目2番1号	0144-61-3111	https://hokuyo.ac.jp/			42.600832	141.467555	公式ウェブサイト
30	30120	F101310100301	日本赤十字北海道看護大学	Japanese Red Cross Hokkaido College of Nursing	090-0011	北海道北見市曙町664番地1	0157-66-3311	https://www.rchokkaido-cn.ac.jp/			43.82968	143.907557	公式ウェブサイト
31	30121	F101310100310	北海道文教大学	Hokkaido Bunkyo University	061-1449	北海道恵庭市黄金中央5丁目196番1	0123-34-0019	https://www.do-bunkyodai.ac.jp/			42.890516	141.591604	公式ウェブサイト
32	30122	F101310100329	天使大学	Tenshi College	065-0013	北海道札幌市東区北13条東3丁目1-30	011-741-1051	https://www.tenshi.ac.jp/			43.077508	141.357461	公式ウェブサイト
33	30123	F101310100338	育英館大学	Ikueikan University	097-0013	北海道稚内市若葉台1丁目2290番28	0162-32-7511	https://www.ikueikan.ac.jp	稚内本校		45.382804	141.717922	公式ウェブサイト
34	30125	F101310100347	札幌大谷大学	Sapporo Otani University	065-8567	北海道札幌市東区北16条東9丁目1-1	011-742-1651	https://www.sapporo-otani.ac.jp/		2027年4月改称予定（札幌芸術大学）	43.082249	141.366486	公式ウェブサイト
35	30126	F101310100356	札幌保健医療大学	Sapporo University of Health Sciences	007-0894	北海道札幌市東区中沼西4条2丁目1-15	011-792-3350	https://www.sapporo-hokeniryou-u.ac.jp/			43.132242	141.412683	公式ウェブサイト
36	30127	F101310100365	日本医療大学	Japan Health Care College	062-0053	北海道札幌市豊平区月寒東3条11丁目1-50	011-351-6100	https://www.jhu.ac.jp/	月寒本キャンパス		43.0291851	141.4137343	公式ウェブサイト
37	30128	F101310100374	北海道千歳リハビリテーション大学	Hokkaido Chitose College of Rehabilitation	066-0055	北海道千歳市里美2丁目10番	0123-28-5331	https://www.chitose-reha.ac.jp/			42.785487	141.598217	公式ウェブサイト
38	30129	F101310100383	北海道武蔵女子大学	Hokkaido Musashi Women’s University	001-0022	北海道札幌市北区北22条西13丁目	011-726-3141	https://www.hmu.ac.jp/		2024年4月開学	43.086771	141.329752	公式ウェブサイト
39	11101	F102110100572	弘前大学	Hirosaki University	036-8560	青森県弘前市文京町1番地	0172-36-2111	https://www.hirosaki-u.ac.jp/	文京町地区		40.589483	140.472484	国立大学協会：一般社団法人国立大学協会会員名簿2026，＜https://www.janu.jp/cms/wp-content/uploads/2026/04/meibo2026.pdf＞
40	21101	F102210100589	青森公立大学	Aomori Public University	030-0196	青森県青森市大字合子沢字山崎153-4	017-764-1555	https://www.nebuta.ac.jp/			40.751921	140.77219	公立大学協会：会員校一覧，＜https://www.kodaikyo.org/?page_id=718＞
41	21102	F102210100598	青森県立保健大学	Aomori University of Health and Welfare	030-8505	青森県青森市大字浜館字間瀬58番地の1	017-765-2000	https://www.auhw.ac.jp/			40.813933	140.792219	公立大学協会：会員校一覧，＜https://www.kodaikyo.org/?page_id=718＞
42	31101	F102310100603	青森大学	Aomori University	030-0943	青森県青森市幸畑2-3-1	017-738-2001	https://www.aomori-u.ac.jp/			40.784068	140.781174	公式ウェブサイト
43	31102	F102310100612	柴田学園大学	Shibata Gakuen University	036-8530	青森県弘前市清原1-1-16	0172-33-2289	https://univ.shibata.ac.jp/			40.580441	140.485239	公式ウェブサイト
44	31104	F102310100621	弘前学院大学	Hirosaki Gakuin University	036-8577	青森県弘前市稔町13-1	0172-34-5211	https://www.hirogaku.ac.jp/			40.583788	140.468132	公式ウェブサイト
45	31103	F102310100630	八戸工業大学	Hachinohe Institute of Technology	031-8501	青森県八戸市妙大開88-1	0178-25-3111	https://www.hi-tech.ac.jp/			40.479642	141.562761	公式ウェブサイト
46	31105	F102310100649	八戸学院大学	Hachinohe Gakuin University	031-8588	青森県八戸市美保野13-98	0178-25-2711	https://www.hachinohe-u.ac.jp/	美保野キャンパス		40.484417	141.590742	公式ウェブサイト
47	31106	F102310100658	青森中央学院大学	Aomori Chuo Gakuin University	030-0132	青森県青森市横内神田12番地	017-728-0131	https://www.aomoricgu.ac.jp/			40.784291	140.762172	公式ウェブサイト
48	31107	F102310100667	弘前医療福祉大学	Hirosaki University of Health and Welfare	036-8102	青森県弘前市小比内三丁目18番地1	0172-27-1001	https://www.hirosakiuhw.jp/			40.588627	140.500355	公式ウェブサイト
49	11201	F103110100731	岩手大学	Iwate University	020-8550	岩手県盛岡市上田3-18-8	019-621-6006	https://www.iwate-u.ac.jp/	上田キャンパス		39.715868	141.138455	国立大学協会：一般社団法人国立大学協会会員名簿2026，＜https://www.janu.jp/cms/wp-content/uploads/2026/04/meibo2026.pdf＞
50	21201	F103210100748	岩手県立大学	Iwate Prefectural University	020-0693	岩手県滝沢市巣子152-52	019-694-2000	https://www.iwate-pu.ac.jp/	滝沢キャンパス		39.802062	141.138526	公立大学協会：会員校一覧，＜https://www.kodaikyo.org/?page_id=718＞
51	31201	F103310100755	岩手医科大学	Iwate Medical University	028-3694	岩手県紫波郡矢巾町医大通一丁目1-1	019-651-5111	https://www.iwate-med.ac.jp/	矢巾キャンパス		39.6102715	141.1625542	岩手県：岩手県私立学校一覧，＜https://www.pref.iwate.jp/kyouikubunka/kyouiku/shigaku/1006747/1006748.html＞
52	31202	F103310100764	富士大学	Fuji University	025-8501	岩手県花巻市下根子450-3	0198-23-6221	https://www.fuji-u.ac.jp/			39.36031	141.105031	岩手県：岩手県私立学校一覧，＜https://www.pref.iwate.jp/kyouikubunka/kyouiku/shigaku/1006747/1006748.html＞
53	31203	F103310100773	盛岡大学	Morioka University	020-0694	岩手県滝沢市砂込808	019-688-5555	https://morioka-u.ac.jp/			39.815401	141.136974	岩手県：岩手県私立学校一覧，＜https://www.pref.iwate.jp/kyouikubunka/kyouiku/shigaku/1006747/1006748.html＞
54	31204	F103310100782	岩手保健医療大学	Iwate University of Health and Medical Sciences	020-0045	岩手県盛岡市盛岡駅西通1丁目6-30	019-606-7030	https://www.iwate-uhms.ac.jp/			39.703258	141.132068	岩手県：岩手県私立学校一覧，＜https://www.pref.iwate.jp/kyouikubunka/kyouiku/shigaku/1006747/1006748.html＞
55	11301	F104110100856	東北大学	Tohoku University	980-8577	宮城県仙台市青葉区片平2-1-1	022-717-7800	https://www.tohoku.ac.jp/	片平キャンパス		38.253834	140.874074	国立大学協会：一般社団法人国立大学協会会員名簿2026，＜https://www.janu.jp/cms/wp-content/uploads/2026/04/meibo2026.pdf＞
56	11302	F104110100865	宮城教育大学	Miyagi University of Education	980-0845	宮城県仙台市青葉区荒巻字青葉149番地	022-214-3675	https://www.miyakyo-u.ac.jp/	青葉山地区		38.259061	140.830894	国立大学協会：一般社団法人国立大学協会会員名簿2026，＜https://www.janu.jp/cms/wp-content/uploads/2026/04/meibo2026.pdf＞
57	21301	F104210100872	宮城大学	Miyagi University	981-3298	宮城県黒川郡大和町学苑1番地1	022-377-8205	https://www.myu.ac.jp/	大和キャンパス		38.348519	140.839615	公立大学協会：会員校一覧，＜https://www.kodaikyo.org/?page_id=718＞
58	31301	F104310100889	仙台大学	Sendai University	989-1693	宮城県柴田郡柴田町船岡南二丁目2-18	0224-55-1121	https://www.sendaidaigaku.jp/	船岡キャンパス		38.051453	140.771576	宮城県：私立学校名簿，＜https://www.pref.miyagi.jp/site/shigaku/sigaku-rist.html＞
59	31302	F104310100898	東北学院大学	Tohoku Gakuin University	980-8511	宮城県仙台市青葉区土樋一丁目3-1	022-264-6421	https://www.tohoku-gakuin.ac.jp/	土樋キャンパス		38.249283	140.878001	宮城県：私立学校名簿，＜https://www.pref.miyagi.jp/site/shigaku/sigaku-rist.html＞
60	31303	F104310100905	東北工業大学	Tohoku Institute of Technology	982-8577	宮城県仙台市太白区八木山香澄町35-1	022-305-3311	https://www.tohtech.ac.jp/	八木山キャンパス		38.246044	140.852242	宮城県：私立学校名簿，＜https://www.pref.miyagi.jp/site/shigaku/sigaku-rist.html＞
61	31304	F104310100914	東北福祉大学	Tohoku Fukushi University	981-8522	宮城県仙台市青葉区国見一丁目8-1	022-233-3111	https://www.tfu.ac.jp/	国見キャンパス		38.279856	140.847377	宮城県：私立学校名簿，＜https://www.pref.miyagi.jp/site/shigaku/sigaku-rist.html＞
62	31305	F104310100923	東北医科薬科大学	Tohoku Medical and Pharmaceutical University	981-8558	宮城県仙台市青葉区小松島四丁目4-1	022-234-4181	https://www.tohoku-mpu.ac.jp/	小松島キャンパス		38.284621	140.885828	宮城県：私立学校名簿，＜https://www.pref.miyagi.jp/site/shigaku/sigaku-rist.html＞
63	31306	F104310100932	東北生活文化大学	Tohoku Seikatsu Bunka University	981-8585	宮城県仙台市泉区虹の丘一丁目18-2	022-272-7511	https://www.mishima.ac.jp/tsb/			38.303897	140.872082	宮城県：私立学校名簿，＜https://www.pref.miyagi.jp/site/shigaku/sigaku-rist.html＞
64	31307	F104310100941	宮城学院女子大学	Miyagi Gakuin Women’s University	981-8557	宮城県仙台市青葉区桜ヶ丘九丁目1-1	022-279-1311	https://www.mgu.ac.jp/			38.306077	140.853999	宮城県：私立学校名簿，＜https://www.pref.miyagi.jp/site/shigaku/sigaku-rist.html＞
65	31308	F104310100950	石巻専修大学	Ishinomaki Senshu University	986-8580	宮城県石巻市南境新水戸1	0225-22-7711	https://www.senshu-u.ac.jp/ishinomaki/			38.454248	141.294973	宮城県：私立学校名簿，＜https://www.pref.miyagi.jp/site/shigaku/sigaku-rist.html＞
66	31309	F104310100969	仙台白百合女子大学	Sendai Shirayuri Women’s College	981-3107	宮城県仙台市泉区本田町6-1	022-372-3254	https://sendai-shirayuri.ac.jp/		2027年4月改称・共学化予定（仙台白百合大学）	38.321477	140.903715	宮城県：私立学校名簿，＜https://www.pref.miyagi.jp/site/shigaku/sigaku-rist.html＞
67	31310	F104310100978	東北文化学園大学	Tohoku Bunka Gakuen University	981-8551	宮城県仙台市青葉区国見六丁目45-1	022-233-3310	https://www.tbgu.ac.jp/			38.27729	140.833028	宮城県：私立学校名簿，＜https://www.pref.miyagi.jp/site/shigaku/sigaku-rist.html＞
68	31311	F104310100987	尚絅学院大学	Shokei Gakuin University	981-1295	宮城県名取市ゆりが丘四丁目10-1	022-381-3300	https://www.shokei.jp/			38.196054	140.829453	宮城県：私立学校名簿，＜https://www.pref.miyagi.jp/site/shigaku/sigaku-rist.html＞
69	31312	F104310100996	仙台青葉学院大学	Sendai Seiyo Gakuin University	984-0022	宮城県仙台市若林区五橋三丁目5-75	022-369-8000	https://seiyogakuin.ac.jp/	五橋キャンパス	2024年4月開学	38.253613	140.88371	宮城県：私立学校名簿，＜https://www.pref.miyagi.jp/site/shigaku/sigaku-rist.html＞
70	11401	F105110101051	秋田大学	Akita University	010-8502	秋田県秋田市手形学園町1-1	018-889-2207	https://www.akita-u.ac.jp/	手形キャンパス		39.726796	140.133167	国立大学協会：一般社団法人国立大学協会会員名簿2026，＜https://www.janu.jp/cms/wp-content/uploads/2026/04/meibo2026.pdf＞
71	21401	F105210101068	秋田県立大学	Akita Prefectural University	010-0195	秋田県秋田市下新城中野字街道端西241-438	018-872-1500	https://www.akita-pu.ac.jp/	秋田キャンパス		39.800818	140.045903	公立大学協会：会員校一覧，＜https://www.kodaikyo.org/?page_id=718＞
72	21402	F105210101077	国際教養大学	Akita International University	010-1292	秋田県秋田市雄和椿川字奥椿岱	018-886-5900	https://www.aiu.ac.jp/			39.626363	140.197806	公立大学協会：会員校一覧，＜https://www.kodaikyo.org/?page_id=718＞
73	21403	F105210101086	秋田公立美術大学	Akita University of Art	010-1632	秋田県秋田市新屋大川町12-3	018-888-8100	https://www.akibi.ac.jp/			39.686442	140.09082	公立大学協会：会員校一覧，＜https://www.kodaikyo.org/?page_id=718＞
74	31401	F105310101093	ノースアジア大学	North Asia University	010-8515	秋田県秋田市下北手桜守沢46-1	018-836-1342	https://www.nau.ac.jp/			39.716538	140.157523	公式ウェブサイト
75	31402	F105310101100	秋田看護福祉大学	Akita University of Nursing and Welfare	017-0046	秋田県大館市清水2-3-4	0186-43-6510	https://www.well.ac.jp/			40.280656	140.553414	公式ウェブサイト
76	31403	F105310101119	日本赤十字東北看護大学	Japanese Red Cross Tohoku College of Nursing	010-1493	秋田県秋田市上北手猿田字苗代沢17番地3	018-829-4000	https://www.rctohoku.ac.jp/		2025年4月改称（旧・日本赤十字秋田看護大学，Japanese Red Cross Akita College of Nursing）	39.68585	140.154662	公式ウェブサイト
77	11501	F106110101176	山形大学	Yamagata University	990-8560	山形県山形市小白川町1-4-12	023-628-4006	https://www.yamagata-u.ac.jp/	小白川キャンパス		38.246612	140.34937	国立大学協会：一般社団法人国立大学協会会員名簿2026，＜https://www.janu.jp/cms/wp-content/uploads/2026/04/meibo2026.pdf＞
78	21504	F106210000014	東北公益文科大学	Tohoku University of Community Service and Science	998-8580	山形県酒田市飯森山三丁目5番地の1	0234-41-1111	https://www.koeki-u.ac.jp/	酒田キャンパス	2026年4月公立化	38.893299	139.819537	公立大学協会：会員校一覧，＜https://www.kodaikyo.org/?page_id=718＞
79	21501	F106210101183	山形県立保健医療大学	Yamagata Prefectural University of Health Sciences	990-2212	山形県山形市上柳260番地	023-686-6611	https://www.yachts.ac.jp/			38.297001	140.346148	公立大学協会：会員校一覧，＜https://www.kodaikyo.org/?page_id=718＞
80	21502	F106210101192	山形県立米沢栄養大学	Yamagata Prefectural Yonezawa University of Nutrition Sciences	992-0025	山形県米沢市通町6-15-1	0238-22-7330	https://www.u.yone.ac.jp/			37.891358	140.123377	公立大学協会：会員校一覧，＜https://www.kodaikyo.org/?page_id=718＞
81	21503	F106210101209	東北農林専門職大学	Tohoku Professional University of Agriculture and Forestry	996-0052	山形県新庄市角沢1366	0233-22-1527	https://tpuaf.ac.jp/university/		2024年4月開学	38.7293586	140.2975613	公立大学協会：会員校一覧，＜https://www.kodaikyo.org/?page_id=718＞
82	31501	F106310101207	東北芸術工科大学	Tohoku University of Art and Design	990-9530	山形県山形市上桜田3-4-5	023-627-2000	https://www.tuad.ac.jp/	山形キャンパス		38.218754	140.344731	公式ウェブサイト
83	31503	F106310101225	東北文教大学	Tohoku Bunkyo College	990-2316	山形県山形市片谷地515	023-688-2298	https://www.t-bunkyo.ac.jp/			38.209893	140.303363	公式ウェブサイト
84	31504	F106310101234	電動モビリティシステム専門職大学	Professional University of Electric Mobility Systems	999-0602	山形県西置賜郡飯豊町萩生1725-2	0238-88-7377	https://www.mobility-ac.com/		2027年4月改称予定（日本先端モビリティ専門職大学），2023年4月開学	38.0674753	139.9881118	公式ウェブサイト
85	11601	F107110101273	福島大学	Fukushima University	960-1296	福島県福島市金谷川1	024-548-8006	https://www.fukushima-u.ac.jp/			37.683761	140.455836	国立大学協会：一般社団法人国立大学協会会員名簿2026，＜https://www.janu.jp/cms/wp-content/uploads/2026/04/meibo2026.pdf＞
86	21601	F107210101280	福島県立医科大学	Fukushima Medical University	960-1295	福島県福島市光が丘1番地	024-547-1111	https://www.fmu.ac.jp/	光が丘キャンパス		37.689191	140.468564	公立大学協会：会員校一覧，＜https://www.kodaikyo.org/?page_id=718＞
87	21602	F107210101299	会津大学	The University of Aizu	965-8580	福島県会津若松市一箕町鶴賀字上居合90	0242-37-2500	https://u-aizu.ac.jp/			37.523763	139.938025	公立大学協会：会員校一覧，＜https://www.kodaikyo.org/?page_id=718＞
88	31601	F107310101304	郡山女子大学	Koriyama Women’s University	963-8503	福島県郡山市開成三丁目25番2号	024-932-4848	https://www.koriyama-kgc.ac.jp/			37.396351	140.349889	公式ウェブサイト
89	31602	F107310101313	奥羽大学	Ohu University	963-8041	福島県郡山市富田町字三角堂31-1	024-932-8931	https://www.ohu-u.ac.jp/			37.418577	140.374282	公式ウェブサイト
90	31603	F107310101322	医療創生大学	Iryo Sosei University	970-8551	福島県いわき市中央台飯野5-5-1	0246-29-5111	https://www.isu.ac.jp/	いわきキャンパス		37.0188	140.916894	公式ウェブサイト
91	31604	F107310101331	東日本国際大学	Higashi Nippon International University	970-8023	福島県いわき市平鎌田字寿金沢37	0246-35-0001	https://www.shk-ac.jp/	鎌田キャンパス		37.0575339	140.9080152	公式ウェブサイト
92	31605	F107310101340	福島学院大学	Fukushima College	960-0181	福島県福島市宮代乳児池1-1	024-553-3221	https://www.fukushima-college.ac.jp/	宮代キャンパス		37.799707	140.486051	公式ウェブサイト
93	12101	F108110101414	茨城大学	Ibaraki University	310-8512	茨城県水戸市文京2-1-1	029-228-8111	https://www.ibaraki.ac.jp/	水戸キャンパス		36.400918	140.442775	国立大学協会：一般社団法人国立大学協会会員名簿2026，＜https://www.janu.jp/cms/wp-content/uploads/2026/04/meibo2026.pdf＞
94	12102	F108110101423	筑波大学	University of Tsukuba	305-8577	茨城県つくば市天王台1-1-1	029-853-2111	https://www.tsukuba.ac.jp/	筑波キャンパス		36.108722	140.103961	国立大学協会：一般社団法人国立大学協会会員名簿2026，＜https://www.janu.jp/cms/wp-content/uploads/2026/04/meibo2026.pdf＞
95	12103	F108110101432	筑波技術大学	Tsukuba University of Technology	305-8520	茨城県つくば市天久保4-3-15	029-852-2931	https://www.tsukuba-tech.ac.jp/	天久保キャンパス		36.104361	140.110459	国立大学協会：一般社団法人国立大学協会会員名簿2026，＜https://www.janu.jp/cms/wp-content/uploads/2026/04/meibo2026.pdf＞
96	22101	F108210101449	茨城県立医療大学	Ibaraki Prefectural University of Health Sciences	300-0394	茨城県稲敷郡阿見町阿見4669-2	0298-88-4000	https://www.ipu.ac.jp/			36.026674	140.210961	公立大学協会：会員校一覧，＜https://www.kodaikyo.org/?page_id=718＞
97	32101	F108310101456	茨城キリスト教大学	Ibaraki Christian University	319-1295	茨城県日立市大みか町6-11-1	0294-52-3215	https://www.icc.ac.jp/			36.514437	140.61669	公式ウェブサイト
98	32102	F108310101465	流通経済大学	Ryutsu Keizai University	270-8555	千葉県松戸市新松戸3-2-1	047-340-0001	https://www.rku.ac.jp/	新松戸キャンパス		35.8255651	139.9165416	公式ウェブサイト
99	32103	F108310101474	常磐大学	Tokiwa University	310-8585	茨城県水戸市見和1-430-1	029-232-2511	https://www.tokiwa.ac.jp/	見和キャンパス		36.38106	140.440505	公式ウェブサイト
100	32104	F108310101483	つくば国際大学	Tsukuba International University	300-0051	茨城県土浦市真鍋6-20-1	029-826-6000	https://www.ktt.ac.jp/tiu/	つくば国際大学キャンパス		36.107191	140.1988747	公式ウェブサイト
101	32105	F108310101492	日本国際学園大学	Japan International University	305-0031	茨城県つくば市吾妻3-1	029-858-4811	https://www.japan-iu.ac.jp/	つくばキャンパス	2024年4月改称（旧・筑波学院大学，Tsukuba Gakuin University）	36.087933	140.107634	公式ウェブサイト
102	32106	F108310101508	日本ウェルネススポーツ大学	Nihon Wellness Sports University	300-1622	茨城県北相馬郡利根町大字布川1377	0297-68-6787	https://www.nihonwellness.jp/	1号館		35.8603	140.145286	公式ウェブサイト
103	32107	F108310111971	アール医療専門職大学	R Professional University of Rehabilitation	300-0032	茨城県土浦市湖北2-10-35	029-824-7611	https://a-ru.ac.jp/university/			36.0848947	140.2125913	公式ウェブサイト
104	12201	F109110101556	宇都宮大学	Utsunomiya University	321-8505	栃木県宇都宮市峰町350	028-649-8172	https://www.utsunomiya-u.ac.jp/	峰キャンパス		36.550972	139.912712	国立大学協会：一般社団法人国立大学協会会員名簿2026，＜https://www.janu.jp/cms/wp-content/uploads/2026/04/meibo2026.pdf＞
105	32201	F109310101561	足利大学	Ashikaga University	326-8558	栃木県足利市大前町268-1	0284-62-0605	https://ashikaga.ac.jp/	大前キャンパス		36.352896	139.39585	公式ウェブサイト
106	32204	F109310101570	白鴎大学	Hakuoh University	323-8586	栃木県小山市駅東通り2-2-2	0285-22-1111	https://hakuoh.jp/	本キャンパス		36.311663	139.80704	公式ウェブサイト
107	32205	F109310101589	作新学院大学	Sakushin Gakuin University	321-3295	栃木県宇都宮市竹下町908	028-667-7111	https://www.sakushin-u.ac.jp/			36.543389	139.977359	公式ウェブサイト
108	32206	F109310101598	国際医療福祉大学	International University of Health and Welfare	324-8501	栃木県大田原市北金丸2600-1	0287-24-3000	https://www.iuhw.ac.jp/	大田原キャンパス		36.870986	140.069648	公式ウェブサイト
109	32207	F109310101605	宇都宮共和大学	Utsunomiya Kyowa University	320-0811	栃木県宇都宮市大通り1-3-18	028-650-6611	https://www.kyowa-u.ac.jp/	宇都宮シティキャンパス		36.560718	139.890995	公式ウェブサイト
110	32208	F109310101614	文星芸術大学	Bunsei University of Art	320-0058	栃木県宇都宮市上戸祭4-8-15	028-625-6888	https://geidai.bunsei.ac.jp/			36.598955	139.859296	公式ウェブサイト
111	32202	F109310101623	自治医科大学	Jichi Medical University	329-0498	栃木県下野市薬師寺3311-1	0285-44-2111	https://www.jichi.ac.jp/			36.399763	139.860547	公式ウェブサイト
112	32203	F109310101632	獨協医科大学	Dokkyo Medical University	321-0293	栃木県下都賀郡壬生町北小林880	0282-86-1111	https://www.dokkyomed.ac.jp/dmu/			36.472362	139.825296	公式ウェブサイト
113	12301	F110110101713	群馬大学	Gunma University	371-8510	群馬県前橋市荒牧町4-2	027-220-7111	https://www.gunma-u.ac.jp/			36.430184	139.044707	国立大学協会：一般社団法人国立大学協会会員名簿2026，＜https://www.janu.jp/cms/wp-content/uploads/2026/04/meibo2026.pdf＞
114	22301	F110210101720	高崎経済大学	Takasaki City University of Economics	370-0801	群馬県高崎市上並榎町1300	027-343-5417	https://www.tcue.ac.jp/			36.345799	138.978611	公立大学協会：会員校一覧，＜https://www.kodaikyo.org/?page_id=718＞
115	22303	F110210101739	前橋工科大学	Maebashi Institute of Technology	371-0816	群馬県前橋市上佐鳥町460番地の1	027-265-0111	https://www.maebashi-it.ac.jp/			36.364471	139.08095	公立大学協会：会員校一覧，＜https://www.kodaikyo.org/?page_id=718＞
116	22302	F110210101748	群馬県立女子大学	Gunma Prefectural Women’s University	370-1193	群馬県佐波郡玉村町上之手1395番1	0270-65-8511	https://www.gpwu.ac.jp/			36.297161	139.113	公立大学協会：会員校一覧，＜https://www.kodaikyo.org/?page_id=718＞
117	22304	F110210101757	群馬県立県民健康科学大学	Gunma Prefectural College of Health Sciences	371-0052	群馬県前橋市上沖町323-1	027-235-1211	https://www.gchs.ac.jp/			36.403534	139.095183	公立大学協会：会員校一覧，＜https://www.kodaikyo.org/?page_id=718＞
118	32311	F110310101764	育英大学	Ikuei University	370-0011	群馬県高崎市京目町1656-1	027-352-1981	https://www.ikuei-g.ac.jp/university/			36.349555	139.050794	群馬県：令和7年度「教育便覧」，＜https://www.pref.gunma.jp/page/716460.html＞
119	32310	F110310101773	ぐんま未来大学	Gunma Mirai University	379-2392	群馬県みどり市笠懸町阿左美606-7	0277-76-2400	https://www.gmu.ac.jp/		2026年4月改称（旧・桐生大学，Kiryu University）	36.377816	139.295815	公式ウェブサイト
120	32309	F110310101782	群馬パース大学	Gumma Paz University	370-0006	群馬県高崎市問屋町一丁目7-1	027-365-3366	https://www.paz.ac.jp/	1号館・2号館		36.349135	139.008676	群馬県：令和7年度「教育便覧」，＜https://www.pref.gunma.jp/page/716460.html＞
121	32307	F110310101791	群馬医療福祉大学	Gunma University of Health and Welfare	371-0823	群馬県前橋市川曲町191-1	027-253-0294	https://www.shoken-gakuen.jp/university/	前橋キャンパス		36.3555043	139.0474254	群馬県：令和7年度「教育便覧」，＜https://www.pref.gunma.jp/page/716460.html＞
122	32305	F110310101808	高崎健康福祉大学	Takasaki University of Health and Welfare	370-0033	群馬県高崎市中大類町37-1	027-352-1290	https://www.takasaki-u.ac.jp/			36.324721	139.05502	群馬県：令和7年度「教育便覧」，＜https://www.pref.gunma.jp/page/716460.html＞
123	32306	F110310101817	高崎商科大学	Takasaki University of Commerce	370-1214	群馬県高崎市根小屋町741	027-347-3399	https://www.tuc.ac.jp/			36.286799	139.03315	群馬県：令和7年度「教育便覧」，＜https://www.pref.gunma.jp/page/716460.html＞
124	32301	F110310101826	上武大学	Jobu University	372-8588	群馬県伊勢崎市戸谷塚町634-1	0270-32-1010	https://www.jobu.ac.jp/	伊勢崎キャンパス		36.278597	139.177464	群馬県：令和7年度「教育便覧」，＜https://www.pref.gunma.jp/page/716460.html＞
125	32302	F110310101835	関東学園大学	Kanto Gakuen University	373-8515	群馬県太田市藤阿久町200	0276-32-7800	https://www.kanto-gakuen.ac.jp/univer2/			36.285743	139.355349	群馬県：令和7年度「教育便覧」，＜https://www.pref.gunma.jp/page/716460.html＞
126	32303	F110310101844	共愛学園前橋国際大学	Kyoai Gakuen University	379-2192	群馬県前橋市小屋原町1154-4	027-266-7575	https://www.kyoai.ac.jp/			36.359122	139.144478	群馬県：令和7年度「教育便覧」，＜https://www.pref.gunma.jp/page/716460.html＞
127	32304	F110310102843	東京福祉大学	Tokyo University of Social Welfare	372-0831	群馬県伊勢崎市山王町2020-1	0270-20-3671	https://www.tokyo-fukushi.ac.jp/	伊勢崎キャンパス		36.28617	139.193791	群馬県：令和7年度「教育便覧」，＜https://www.pref.gunma.jp/page/716460.html＞
128	12401	F111110101945	埼玉大学	Saitama University	338-8570	埼玉県さいたま市桜区下大久保255	048-858-3005	https://www.saitama-u.ac.jp/			35.865448	139.608483	国立大学協会：一般社団法人国立大学協会会員名簿2026，＜https://www.janu.jp/cms/wp-content/uploads/2026/04/meibo2026.pdf＞
129	22401	F111210101952	埼玉県立大学	Saitama Prefectural University	343-8540	埼玉県越谷市三野宮820番地	048-971-0500	https://www.spu.ac.jp/			35.929742	139.755905	公立大学協会：会員校一覧，＜https://www.kodaikyo.org/?page_id=718＞
130	32427	F111310101969	日本医療科学大学	Nihon Institute of Medical Science	350-0435	埼玉県入間郡毛呂山町下川原1276	049-294-9000	https://www.nims.ac.jp/wp/			35.932111	139.343431	埼玉県：大学・短期大学名簿，＜https://www.pref.saitama.lg.jp/a0204/911-20091202-406.html＞
131	32425	F111310101978	日本薬科大学	Nihon Pharmaceutical University	362-0806	埼玉県北足立郡伊奈町小室10281	048-721-1155	https://www.nichiyaku.ac.jp/	さいたまキャンパス		35.991177	139.617167	埼玉県：大学・短期大学名簿，＜https://www.pref.saitama.lg.jp/a0204/911-20091202-406.html＞
132	32426	F111310101987	武蔵野学院大学	Musashino Gakuin University	350-1328	埼玉県狭山市広瀬台3-26-1	04-2954-6131	https://www.musashino.ac.jp/mgu/			35.8671845	139.3864793	埼玉県：大学・短期大学名簿，＜https://www.pref.saitama.lg.jp/a0204/911-20091202-406.html＞
133	32423	F111310101996	浦和大学	Urawa University	336-0974	埼玉県さいたま市緑区大崎3551	048-878-3741	https://www.urawa.ac.jp/			35.8906	139.712351	埼玉県：大学・短期大学名簿，＜https://www.pref.saitama.lg.jp/a0204/911-20091202-406.html＞
134	32422	F111310102003	ものつくり大学	Institute of Technologists	361-0038	埼玉県行田市前谷333	048-564-3200	https://www.iot.ac.jp/			36.115643	139.457336	埼玉県：大学・短期大学名簿，＜https://www.pref.saitama.lg.jp/a0204/911-20091202-406.html＞
135	32420	F111310102012	共栄大学	Kyoei University	344-0051	埼玉県春日部市内牧4158	048-755-2932	https://www.kyoei.ac.jp/			35.996451	139.723507	埼玉県：大学・短期大学名簿，＜https://www.pref.saitama.lg.jp/a0204/911-20091202-406.html＞
136	32421	F111310102021	埼玉学園大学	Saitama Gakuen University	333-0831	埼玉県川口市木曽呂1510	048-294-1110	https://www.saigaku.ac.jp/			35.857094	139.714146	埼玉県：大学・短期大学名簿，＜https://www.pref.saitama.lg.jp/a0204/911-20091202-406.html＞
137	32418	F111310102030	尚美学園大学	Shobi University	350-1110	埼玉県川越市豊田町1-1-1	049-246-2700	https://www.shobi-u.ac.jp/			35.907486	139.459382	埼玉県：大学・短期大学名簿，＜https://www.pref.saitama.lg.jp/a0204/911-20091202-406.html＞
138	32419	F111310102049	人間総合科学大学	University of Human Arts and Sciences	339-8539	埼玉県さいたま市岩槻区馬込1288	048-749-6111	https://www.human.ac.jp/	蓮田キャンパス		35.970453	139.657522	埼玉県：大学・短期大学名簿，＜https://www.pref.saitama.lg.jp/a0204/911-20091202-406.html＞
139	32417	F111310102058	西武文理大学	Bunri University of Hospitality	350-1336	埼玉県狭山市柏原新田311-1	04-2954-7575	https://www.bunri-c.ac.jp/			35.893641	139.419212	埼玉県：大学・短期大学名簿，＜https://www.pref.saitama.lg.jp/a0204/911-20091202-406.html＞
140	32415	F111310102067	十文字学園女子大学	Jumonji University	352-8510	埼玉県新座市菅沢2-1-28	048-477-0555	https://www.jumonji-u.ac.jp/			35.799729	139.551103	埼玉県：大学・短期大学名簿，＜https://www.pref.saitama.lg.jp/a0204/911-20091202-406.html＞
141	32416	F111310102076	平成国際大学	Heisei International University	347-8504	埼玉県加須市水深大立野2000	0480-66-2100	https://www.hiu.ac.jp/	加須キャンパス		36.100356	139.642846	埼玉県：大学・短期大学名簿，＜https://www.pref.saitama.lg.jp/a0204/911-20091202-406.html＞
142	32403	F111310102094	城西大学	Josai University	350-0295	埼玉県坂戸市けやき台1-1	049-286-2233	https://www.josai.ac.jp/	埼玉坂戸キャンパス		35.931027	139.340283	埼玉県：大学・短期大学名簿，＜https://www.pref.saitama.lg.jp/a0204/911-20091202-406.html＞
143	32405	F111310102101	東邦音楽大学	Toho College of Music	350-0015	埼玉県川越市今泉84	049-235-2157	https://www.toho-music.ac.jp/	川越キャンパス		35.897289	139.523649	埼玉県：大学・短期大学名簿，＜https://www.pref.saitama.lg.jp/a0204/911-20091202-406.html＞
144	32406	F111310102110	獨協大学	Dokkyo University	340-0042	埼玉県草加市学園町1-1	048-946-1635	https://www.dokkyo.ac.jp/			35.839887	139.794383	埼玉県：大学・短期大学名簿，＜https://www.pref.saitama.lg.jp/a0204/911-20091202-406.html＞
145	32407	F111310102129	日本工業大学	Nippon Institute of Technology	345-8501	埼玉県南埼玉郡宮代町学園台4-1	0480-34-4111	https://www.nit.ac.jp/	埼玉キャンパス		36.0254	139.712872	埼玉県：大学・短期大学名簿，＜https://www.pref.saitama.lg.jp/a0204/911-20091202-406.html＞
146	32404	F111310102138	明海大学	Meikai University	350-0283	埼玉県坂戸市けやき台1-1	049-285-5511	https://www.meikai.ac.jp/	坂戸キャンパス		35.933386	139.3412895	埼玉県：大学・短期大学名簿，＜https://www.pref.saitama.lg.jp/a0204/911-20091202-406.html＞
147	32409	F111310102147	埼玉医科大学	Saitama Medical University	350-0495	埼玉県入間郡毛呂山町毛呂本郷38	049-276-1109	https://www.saitama-med.ac.jp/	毛呂山キャンパス		35.9378283	139.3050682	埼玉県：大学・短期大学名簿，＜https://www.pref.saitama.lg.jp/a0204/911-20091202-406.html＞
148	32410	F111310102156	埼玉工業大学	Saitama Institute of Technology	369-0293	埼玉県深谷市普済寺1690	048-585-2521	https://www.sit.ac.jp/			36.195271	139.238141	埼玉県：大学・短期大学名簿，＜https://www.pref.saitama.lg.jp/a0204/911-20091202-406.html＞
149	32411	F111310102165	駿河台大学	Surugadai University	357-8555	埼玉県飯能市阿須698	042-972-1111	https://www.surugadai.ac.jp/			35.832506	139.33387	埼玉県：大学・短期大学名簿，＜https://www.pref.saitama.lg.jp/a0204/911-20091202-406.html＞
150	32412	F111310102174	聖学院大学	Seigakuin University	362-8585	埼玉県上尾市戸崎1-1	048-781-0925	https://www.seigakuin-univ.ac.jp/			35.937961	139.596284	埼玉県：大学・短期大学名簿，＜https://www.pref.saitama.lg.jp/a0204/911-20091202-406.html＞
151	32625	F111310102183	日本栄養大学	Japan Nutrition University	350-0288	埼玉県坂戸市千代田3-9-21	049-282-7331	https://www.eiyo.ac.jp/	坂戸キャンパス	2026年4月改称・共学化（旧・女子栄養大学，Kagawa Nutrition University）	35.952294	139.409849	公式ウェブサイト
152	32428	F111310102192	東都大学	Tohto university	366-0052	埼玉県深谷市上柴町西4-2-11	048-574-2500	https://www.tohto.ac.jp/	深谷キャンパス		36.180204	139.298852	埼玉県：大学・短期大学名簿，＜https://www.pref.saitama.lg.jp/a0204/911-20091202-406.html＞
153	32429	F111310102209	日本保健医療大学	Japan University of Health Sciences	340-0113	埼玉県幸手市幸手1961-2	0480-40-4848	https://www.jhsu.ac.jp/	幸手北キャンパス		36.072736	139.731244	埼玉県：大学・短期大学名簿，＜https://www.pref.saitama.lg.jp/a0204/911-20091202-406.html＞
154	32408	F111310102860	文教大学	Bunkyo University	343-8511	埼玉県越谷市南荻島3337	048-974-8811	https://www.bunkyo.ac.jp/	越谷キャンパス		35.905302	139.771521	埼玉県：大学・短期大学名簿，＜https://www.pref.saitama.lg.jp/a0204/911-20091202-406.html＞
155	32430	F111310112047	教育テック大学院大学	The Graduate School of Management and Education Technology	358-0033	埼玉県入間市狭山台一丁目3番7	050-3645-7911	https://www.e-mbatech.ac.jp/	入間キャンパス	2025年4月開学，入間看護専門学校と施設共用	35.8063774	139.3661826	埼玉県：大学・短期大学名簿，＜https://www.pref.saitama.lg.jp/a0204/911-20091202-406.html＞
156	12501	F112110102337	千葉大学	Chiba University	263-8522	千葉県千葉市稲毛区弥生町1-33	043-251-1111	https://www.chiba-u.ac.jp/	西千葉キャンパス		35.626247	140.102412	国立大学協会：一般社団法人国立大学協会会員名簿2026，＜https://www.janu.jp/cms/wp-content/uploads/2026/04/meibo2026.pdf＞
157	22501	F112210102353	千葉県立保健医療大学	Chiba Prefectural University of Health Sciences	261-0014	千葉県千葉市美浜区若葉2-10-1	043-296-2000	https://www.pref.chiba.lg.jp/hoidai/	幕張キャンパス		35.652183	140.052001	公立大学協会：会員校一覧，＜https://www.kodaikyo.org/?page_id=718＞
158	32508	F112310102342	放送大学	The Open University of Japan	261-8586	千葉県千葉市美浜区若葉2-11	043-276-5111	https://www.ouj.ac.jp/	本部／千葉学習センター		35.653283	140.049741	千葉県：令和7年版教育便覧，＜https://www.pref.chiba.lg.jp/kyouiku/seisaku/kouhou/kyouikubinran/r7.html＞
159	32525	F112310102360	千葉科学大学	Chiba Institute of Science	288-0025	千葉県銚子市潮見町3	0479-30-4500	https://www.cis.ac.jp/	本部キャンパス		35.701536	140.846095	千葉県：令和7年版教育便覧，＜https://www.pref.chiba.lg.jp/kyouiku/seisaku/kouhou/kyouikubinran/r7.html＞
160	32523	F112310102379	愛国学園大学	Aikoku Gakuen University	284-0005	千葉県四街道市四街道1532	043-424-4433	https://www.aikoku-u.ac.jp/			35.666174	140.159423	千葉県：令和7年版教育便覧，＜https://www.pref.chiba.lg.jp/kyouiku/seisaku/kouhou/kyouikubinran/r7.html＞
161	32524	F112310102388	開智国際大学	Kaichi International University	277-0005	千葉県柏市柏1225-6	04-7167-8655	https://www.kaichi.ac.jp/			35.86163	139.988136	千葉県：令和7年版教育便覧，＜https://www.pref.chiba.lg.jp/kyouiku/seisaku/kouhou/kyouikubinran/r7.html＞
162	32522	F112310102397	清和大学	Seiwa University	292-8555	千葉県木更津市東太田3-4-5	0438-30-5555	https://www.seiwa-univ.ac.jp/			35.376394	139.958965	千葉県：令和7年版教育便覧，＜https://www.pref.chiba.lg.jp/kyouiku/seisaku/kouhou/kyouikubinran/r7.html＞
163	32519	F112310102404	城西国際大学	Josai International University	283-8555	千葉県東金市求名1	0475-55-8800	https://www.jiu.ac.jp/	千葉東金キャンパス		35.581928	140.391847	千葉県：令和7年版教育便覧，＜https://www.pref.chiba.lg.jp/kyouiku/seisaku/kouhou/kyouikubinran/r7.html＞
164	32501	F112310102413	淑徳大学	Shukutoku University	260-8701	千葉県千葉市中央区大巌寺町200	043-265-7331	https://www.shukutoku.ac.jp/	千葉キャンパス		35.574428	140.144189	千葉県：令和7年版教育便覧，＜https://www.pref.chiba.lg.jp/kyouiku/seisaku/kouhou/kyouikubinran/r7.html＞
165	32502	F112310102422	敬愛大学	Keiai University	263-8588	千葉県千葉市稲毛区穴川1-5-21	043-251-6363	https://www.u-keiai.ac.jp/	稲毛キャンパス		35.63352	140.1036698	千葉県：令和7年版教育便覧，＜https://www.pref.chiba.lg.jp/kyouiku/seisaku/kouhou/kyouikubinran/r7.html＞
166	32503	F112310102431	千葉工業大学	Chiba Institute of Technology	275-0016	千葉県習志野市津田沼2-17-1	047-478-0208	https://www.it-chiba.ac.jp/	津田沼キャンパス		35.688847	140.021364	千葉県：令和7年版教育便覧，＜https://www.pref.chiba.lg.jp/kyouiku/seisaku/kouhou/kyouikubinran/r7.html＞
167	32504	F112310102440	千葉商科大学	Chiba University of Commerce	272-8512	千葉県市川市国府台1-3-1	047-372-4111	https://www.cuc.ac.jp/	市川キャンパス		35.742079	139.906323	千葉県：令和7年版教育便覧，＜https://www.pref.chiba.lg.jp/kyouiku/seisaku/kouhou/kyouikubinran/r7.html＞
168	32505	F112310102459	中央学院大学	Chuo Gakuin University	270-1196	千葉県我孫子市久寺家451	04-7183-6501	https://www.cgu.ac.jp/			35.882758	140.019209	千葉県：令和7年版教育便覧，＜https://www.pref.chiba.lg.jp/kyouiku/seisaku/kouhou/kyouikubinran/r7.html＞
169	32506	F112310102468	麗澤大学	Reitaku University	277-8686	千葉県柏市光ヶ丘2-1-1	04-7173-3601	https://www.reitaku-u.ac.jp/			35.832716	139.954119	千葉県：令和7年版教育便覧，＜https://www.pref.chiba.lg.jp/kyouiku/seisaku/kouhou/kyouikubinran/r7.html＞
170	32507	F112310102477	和洋女子大学	Wayo Women’s University	272-8533	千葉県市川市国府台2-3-1	047-371-1111	https://www.wayo.ac.jp/			35.742348	139.904672	千葉県：令和7年版教育便覧，＜https://www.pref.chiba.lg.jp/kyouiku/seisaku/kouhou/kyouikubinran/r7.html＞
171	32509	F112310102486	国際武道大学	International Budo University	299-5295	千葉県勝浦市新官841	0470-73-4111	https://www.budo-u.ac.jp/			35.160821	140.321049	千葉県：令和7年版教育便覧，＜https://www.pref.chiba.lg.jp/kyouiku/seisaku/kouhou/kyouikubinran/r7.html＞
172	32510	F112310102495	神田外語大学	Kanda University of International Studies	261-0014	千葉県千葉市美浜区若葉1-4-1	043-273-1322	https://www.kandagaigo.ac.jp/kuis/			35.657239	140.044089	千葉県：令和7年版教育便覧，＜https://www.pref.chiba.lg.jp/kyouiku/seisaku/kouhou/kyouikubinran/r7.html＞
173	32512	F112310102501	千葉経済大学	Chiba Keizai University	263-0021	千葉県千葉市稲毛区轟町3-59-5	043-253-9111	https://www.cku.ac.jp/			35.62872	140.110305	千葉県：令和7年版教育便覧，＜https://www.pref.chiba.lg.jp/kyouiku/seisaku/kouhou/kyouikubinran/r7.html＞
174	32513	F112310102510	秀明大学	Shumei University	276-0003	千葉県八千代市大学町1-1	047-488-2111	https://www.shumei-u.ac.jp/			35.771799	140.09949	千葉県：令和7年版教育便覧，＜https://www.pref.chiba.lg.jp/kyouiku/seisaku/kouhou/kyouikubinran/r7.html＞
175	32514	F112310102529	川村学園女子大学	Kawamura Gakuen Woman’s University	270-1138	千葉県我孫子市下ケ戸1133	04-7183-0111	https://www.kgwu.ac.jp/	我孫子キャンパス 		35.874673	140.053149	千葉県：令和7年版教育便覧，＜https://www.pref.chiba.lg.jp/kyouiku/seisaku/kouhou/kyouikubinran/r7.html＞
176	32515	F112310102538	東京情報大学	Tokyo University of Information Sciences	265-8501	千葉県千葉市若葉区御成台4-1	043-236-4603	https://www.tuis.ac.jp/			35.637621	140.203132	千葉県：令和7年版教育便覧，＜https://www.pref.chiba.lg.jp/kyouiku/seisaku/kouhou/kyouikubinran/r7.html＞
177	32516	F112310102547	東京基督教大学	Tokyo Christian University	270-1347	千葉県印西市内野3-301-5	0476-46-1131	https://www.tci.ac.jp/			35.789879	140.125595	千葉県：令和7年版教育便覧，＜https://www.pref.chiba.lg.jp/kyouiku/seisaku/kouhou/kyouikubinran/r7.html＞
178	32517	F112310102556	聖徳大学	Seitoku University	271-8555	千葉県松戸市岩瀬550	047-365-1111	https://www.seitoku-u.ac.jp/			35.783753	139.904234	千葉県：令和7年版教育便覧，＜https://www.pref.chiba.lg.jp/kyouiku/seisaku/kouhou/kyouikubinran/r7.html＞
179	32518	F112310102565	江戸川大学	Edogawa University	270-0198	千葉県流山市駒木474	04-7152-0661	https://www.edogawa-u.ac.jp/	駒木キャンパス		35.876537	139.938739	千葉県：令和7年版教育便覧，＜https://www.pref.chiba.lg.jp/kyouiku/seisaku/kouhou/kyouikubinran/r7.html＞
180	32526	F112310102574	SBC東京医療大学	SBC Tokyo Medical University	279-8567	千葉県浦安市明海5-8-1	047-382-2111	https://www.sbctmu.ac.jp/		2024年4月改称（旧・了徳寺大学，Ryotokuji University）	35.638377	139.926213	千葉県：令和7年版教育便覧，＜https://www.pref.chiba.lg.jp/kyouiku/seisaku/kouhou/kyouikubinran/r7.html＞
181	32527	F112310102583	植草学園大学	Uekusa Gakuen University	264-0007	千葉県千葉市若葉区小倉町1639-3	043-233-9031	https://www.uekusa.ac.jp/	千葉若葉キャンパス		35.634552	140.182441	千葉県：令和7年版教育便覧，＜https://www.pref.chiba.lg.jp/kyouiku/seisaku/kouhou/kyouikubinran/r7.html＞
182	32528	F112310102592	三育学院大学	Saniku Gakuin College	298-0297	千葉県夷隅郡大多喜町久我原1500	0470-84-0111	https://www.saniku.ac.jp/	大多喜キャンパス		35.241749	140.263661	千葉県：令和7年版教育便覧，＜https://www.pref.chiba.lg.jp/kyouiku/seisaku/kouhou/kyouikubinran/r7.html＞
183	32529	F112310102609	亀田医療大学	Kameda University of Health Sciences	296-0001	千葉県鴨川市横渚462	04-7099-1211	https://www.kameda.ac.jp/	横渚キャンパス		35.102028	140.100042	千葉県：令和7年版教育便覧，＜https://www.pref.chiba.lg.jp/kyouiku/seisaku/kouhou/kyouikubinran/r7.html＞
184	12601	F113110102700	東京大学	The University of Tokyo	113-8654	東京都文京区本郷7-3-1	03-3812-2111	https://www.u-tokyo.ac.jp	本郷地区キャンパス		35.712677	139.761989	国立大学協会：一般社団法人国立大学協会会員名簿2026，＜https://www.janu.jp/cms/wp-content/uploads/2026/04/meibo2026.pdf＞
185	12603	F113110102728	東京外国語大学	Tokyo University of Foreign Studies	183-8534	東京都府中市朝日町3-11-1	042-330-5159	https://www.tufs.ac.jp/	府中キャンパス		35.673444	139.519935	国立大学協会：一般社団法人国立大学協会会員名簿2026，＜https://www.janu.jp/cms/wp-content/uploads/2026/04/meibo2026.pdf＞
186	12606	F113110102737	東京藝術大学	Tokyo University of the Arts	110-8714	東京都台東区上野公園12-8	050-5525-2013	https://www.geidai.ac.jp/	上野キャンパス		35.719251	139.77225	国立大学協会：一般社団法人国立大学協会会員名簿2026，＜https://www.janu.jp/cms/wp-content/uploads/2026/04/meibo2026.pdf＞
187	12611	F113110102755	お茶の水女子大学	Ochanomizu University	112-8610	東京都文京区大塚2-1-1	03-5978-5105	https://www.ocha.ac.jp/			35.718758	139.732176	国立大学協会：一般社団法人国立大学協会概要’22（会員名簿），＜https://www.janu.jp/wp/wp-content/uploads/2022/10/members_20221001.pdf＞
188	12604	F113110102764	東京学芸大学	Tokyo Gakugei University	184-8501	東京都小金井市貫井北町4-1-1	042-329-7111 	https://www.u-gakugei.ac.jp			35.705145	139.493345	国立大学協会：一般社団法人国立大学協会会員名簿2026，＜https://www.janu.jp/cms/wp-content/uploads/2026/04/meibo2026.pdf＞
189	12605	F113110102773	東京農工大学	Tokyo University of Agriculture and Technology	183-8538	東京都府中市晴見町3-8-1	042-367-5504	https://www.tuat.ac.jp/	府中キャンパス		35.684234	139.481255	国立大学協会：一般社団法人国立大学協会会員名簿2026，＜https://www.janu.jp/cms/wp-content/uploads/2026/04/meibo2026.pdf＞
190	12612	F113110102782	電気通信大学	The University of Electro-Communications	182-8585	東京都調布市調布ヶ丘1-5-1	042-443-5000	https://www.uec.ac.jp/			35.655653	139.544204	国立大学協会：一般社団法人国立大学協会概要’22（会員名簿），＜https://www.janu.jp/wp/wp-content/uploads/2022/10/members_20221001.pdf＞
191	12613	F113110102791	一橋大学	Hitotsubashi University	186-8601	東京都国立市中2-1	042-580-8000	https://www.hit-u.ac.jp/	国立キャンパス		35.694403	139.445458	国立大学協会：一般社団法人国立大学協会概要’22（会員名簿），＜https://www.janu.jp/wp/wp-content/uploads/2022/10/members_20221001.pdf＞
192	12703	F113110102808	政策研究大学院大学	National Graduate Institute for Policy Studies	106-8677	東京都港区六本木7-22-1	03-6439-6000	https://www.grips.ac.jp/			35.663961	139.727284	国立大学協会：一般社団法人国立大学協会概要’22（会員名簿），＜https://www.janu.jp/wp/wp-content/uploads/2022/10/members_20221001.pdf＞
193	12614	F113110102817	東京海洋大学	Tokyo University of Marine Science and Technology	108-8477	東京都港区港南4-5-7	03-5463-0400	https://www.kaiyodai.ac.jp/	品川キャンパス		35.626839	139.747086	国立大学協会：一般社団法人国立大学協会概要’22（会員名簿），＜https://www.janu.jp/wp/wp-content/uploads/2022/10/members_20221001.pdf＞
194	12608	F113110112030	東京科学大学	Institute of Science Tokyo	152-8550	東京都目黒区大岡山2-12-1	03-3726-1111	https://www.isct.ac.jp/ja	大岡山キャンパス	2024年10月改称（旧・東京工業大学，Tokyo Institute of Technology，東京医科歯科大学を統合）	35.605123	139.68353	国立大学協会：一般社団法人国立大学協会概要’22（会員名簿），＜https://www.janu.jp/wp/wp-content/uploads/2022/10/members_20221001.pdf＞
195	22604	F113210102824	東京都立大学	Tokyo Metropolitan University	192-0397	東京都八王子市南大沢1-1	042-677-1111	https://www.tmu.ac.jp/	南大沢キャンパス		35.617166	139.377033	公立大学協会：会員校一覧，＜https://www.kodaikyo.org/?page_id=718＞
196	22605	F113210102833	東京都立産業技術大学院大学	Advanced Institute of Industrial Technology	140-0011	東京都品川区東大井1丁目10番40号	03-3472-7831	https://aiit.ac.jp/			35.606505	139.749135	公立大学協会：会員校一覧，＜https://www.kodaikyo.org/?page_id=718＞
197	32401	F113310102859	跡見学園女子大学	Atomi University	112-8687	東京都文京区大塚1-5-2	03-3941-7420	https://www.atomi.ac.jp/univ/	文京キャンパス		35.7181037	139.7351637	公式ウェブサイト
198	32413	F113310102877	文京学院大学	Bunkyo Gakuin University	113-8668	東京都文京区向丘1-19-1	03-3814-1661	https://www.bgu.ac.jp/	本郷キャンパス		35.717988	139.757283	公式ウェブサイト
199	32414	F113310102886	目白大学	Mejiro University	161-8539	東京都新宿区中落合4-31-1	03-5996-3121	https://www.mejiro.ac.jp/	新宿キャンパス		35.71766	139.680981	公式ウェブサイト
200	32521	F113310102895	東京成徳大学	Tokyo Seitoku University	114-0033	東京都北区十条台1-7-13	03-3908-4530	https://www.tsu.ac.jp/	東京キャンパス		35.7571	139.724594	公式ウェブサイト
201	32520	F113310102902	東洋学園大学	Toyo Gakuen University	113-0033	東京都文京区本郷1-26-3	03-3811-1696	https://www.tyg.jp/	本郷キャンパス		35.704668	139.757639	公式ウェブサイト
202	32511	F113310102911	帝京平成大学	Teikyo Heisei University	170-8445	東京都豊島区東池袋2-51-4	03-5843-3111	https://www.thu.ac.jp/	池袋キャンパス		35.732878	139.719224	公式ウェブサイト
203	32601	F113310102920	青山学院大学	Aoyama Gakuin University	150-8366	東京都渋谷区渋谷4-4-25	03-3409-7798	https://www.aoyama.ac.jp/	青山キャンパス		35.660407	139.709517	公式ウェブサイト
204	32604	F113310102948	大妻女子大学	Otsuma Women’s University	102-8357	東京都千代田区三番町12番地	03-5275-6000	https://www.otsuma.ac.jp/	千代田キャンパス		35.691098	139.743213	公式ウェブサイト
205	32606	F113310102957	学習院大学	Gakushuin University	171-8588	東京都豊島区目白1-5-1	03-5992-1008	https://www.univ.gakushuin.ac.jp/	目白キャンパス		35.719195	139.708198	公式ウェブサイト
206	32607	F113310102966	北里大学	Kitasato University	108-8641	東京都港区白金5-9-1	03-3444-6161	https://www.kitasato-u.ac.jp/jp/index.html	白金キャンパス		35.644758	139.72563	公式ウェブサイト
207	32608	F113310102975	共立女子大学	Kyoritsu Women’s University	101-8437	東京都千代田区一ツ橋2-2-1	03-3237-5927	https://www.kyoritsu-wu.ac.jp/	神田一ツ橋キャンパス本館		35.6933207	139.7572299	公式ウェブサイト
208	32612	F113310102984	慶應義塾大学	Keio University	108-8345	東京都港区三田2-15-45	03-5427-1517	https://www.keio.ac.jp/ja/	三田キャンパス		35.648964	139.742938	公式ウェブサイト
209	32613	F113310102993	工学院大学	Kogakuin University	163-8677	東京都新宿区西新宿1-24-2	03-3342-1211	https://www.kogakuin.ac.jp/	新宿キャンパス		35.690582	139.6954	公式ウェブサイト
210	32614	F113310103000	國學院大學	Kokugakuin University	150-8440	東京都渋谷区東4-10-28	03-5466-0111	https://www.kokugakuin.ac.jp/	渋谷キャンパス		35.655632	139.711749	公式ウェブサイト
211	32616	F113310103019	国士舘大学	Kokushikan University	154-8515	東京都世田谷区世田谷4-28-1	03-5481-3111	https://www.kokushikan.ac.jp/	世田谷キャンパス		35.648139	139.653136	公式ウェブサイト
212	32617	F113310103028	駒澤大学	Komazawa University	154-8525	東京都世田谷区駒沢1-23-1	03-3418-9111	https://www.komazawa-u.ac.jp/	駒沢キャンパス		35.62893	139.658086	公式ウェブサイト
213	32618	F113310103037	実践女子大学	Jissen Women’s University	191-8510	東京都日野市大坂上4-1-1	042-585-8817	https://www.jissen.ac.jp/	日野キャンパス		35.671396	139.389932	公式ウェブサイト
214	32619	F113310103046	芝浦工業大学	Shibaura Institute of Technology	135-8548	東京都江東区豊洲3-7-5	03-5859-7000	https://www.shibaura-it.ac.jp/	豊洲キャンパス		35.6605332	139.7948506	公式ウェブサイト
215	32620	F113310103055	順天堂大学	Juntendo University	113-8421	東京都文京区本郷2丁目1番1号	03-3813-3111	https://www.juntendo.ac.jp/	本郷・お茶の水キャンパス		35.70213	139.760834	公式ウェブサイト
216	32621	F113310103064	上智大学	Sophia University	102-8554	東京都千代田区紀尾井町7-1	03-3238-3111	https://www.sophia.ac.jp/	四谷キャンパス		35.682982	139.732278	公式ウェブサイト
217	32622	F113310103073	昭和医科大学	Showa Medical University	142-8555	東京都品川区旗の台1-5-8	03-3784-8000	https://www.showa-u.ac.jp/	旗の台キャンパス	2025年4月改称（旧・昭和大学，Showa University）	35.608495	139.7035	公式ウェブサイト
218	32623	F113310103082	昭和女子大学	Showa Women’s University	154-8533	東京都世田谷区太子堂1-7-57	03-3411-5123	https://univ.swu.ac.jp/			35.645414	139.675311	公式ウェブサイト
219	32624	F113310103091	昭和薬科大学	Showa Pharmaceutical University	194-8543	東京都町田市東玉川学園3丁目2番1号	042-721-1511	https://www.shoyaku.ac.jp/		2024年7月住居表示	35.553674	139.470291	公式ウェブサイト
220	32626	F113310103108	女子美術大学	Joshibi University of Art and Design	166-8538	東京都杉並区和田1-49-8	03-5340-4500	https://www.joshibi.ac.jp/	杉並キャンパス		35.6935095	139.6623465	公式ウェブサイト
221	32628	F113310103117	杉野服飾大学	Sugino Fashion College	141-8652	東京都品川区上大崎4-6-19	03-3491-8151	https://www.sugino-fc.ac.jp/	目黒キャンパス		35.631602	139.715872	公式ウェブサイト
222	32630	F113310103126	成城大学	Seijo University	157-8511	東京都世田谷区成城6-1-20	03-3482-2101	https://www.seijo.ac.jp/			35.642181	139.600316	公式ウェブサイト
223	32631	F113310103135	聖心女子大学	University of the Sacred Heart	150-8938	東京都渋谷区広尾4-3-1	03-3407-5811	https://www.u-sacred-heart.ac.jp/			35.651546	139.719533	公式ウェブサイト
224	32632	F113310103144	清泉女子大学	Seisen University	141-8642	東京都品川区東五反田3-16-21	03-3447-5551	https://www.seisen-u.ac.jp/			35.627362	139.728951	公式ウェブサイト
225	32633	F113310103153	聖路加国際大学	St. Luke’s International University	104-0044	東京都中央区明石町10番1号	03-3543-6391	https://university.luke.ac.jp/			35.667692	139.775697	公式ウェブサイト
226	32634	F113310103162	専修大学	Senshu University	101-8425	東京都千代田区神田神保町3-8	03-3265-5973	https://www.senshu-u.ac.jp/	神田キャンパス		35.696854	139.753963	公式ウェブサイト
227	32635	F113310103171	大正大学	Taisho University	170-8470	東京都豊島区西巣鴨3-20-1	03-3918-7311	https://www.tais.ac.jp/			35.742442	139.727742	公式ウェブサイト
228	32636	F113310103180	大東文化大学	Daito Bunka University	175-8571	東京都板橋区高島平1-9-1	03-5399-7309	https://www.daito.ac.jp/	東京板橋キャンパス		35.782096	139.668472	公式ウェブサイト
229	32637	F113310103199	高千穂大学	Takachiho University	168-8508	東京都杉並区大宮2丁目19-1	03-3313-0141	https://www.takachiho.jp/	杉並キャンパス		35.682813	139.638152	公式ウェブサイト
230	32638	F113310103206	拓殖大学	Takushoku University	112-8585	東京都文京区小日向3-4-14	03-3947-7111	https://www.takushoku-u.ac.jp/	文京キャンパス		35.715321	139.736216	公式ウェブサイト
231	32640	F113310103215	多摩美術大学	Tama Art University	158-8558	東京都世田谷区上野毛3-15-34	03-3702-1141	https://www.tamabi.ac.jp/	上野毛キャンパス		35.614115	139.63665	公式ウェブサイト
232	32641	F113310103224	中央大学	Chuo University	192-0393	東京都八王子市東中野742-1	042-674-2210	https://www.chuo-u.ac.jp/	多摩キャンパス		35.64139	139.405716	公式ウェブサイト
233	32644	F113310103233	東海大学	Tokai University	259-1292	神奈川県平塚市北金目4-1-1	0463-58-1211	https://www.u-tokai.ac.jp/	湘南キャンパス（メインキャンパス）	本部は渋谷キャンパス（渋谷区富ヶ谷）	35.3638487	139.2744515	公式ウェブサイト
234	32645	F113310103242	東京医科大学	Tokyo Medical University	160-8402	東京都新宿区新宿6-1-1	03-3351-6141	https://www.tokyo-med.ac.jp/			35.693451	139.712321	公式ウェブサイト
235	32647	F113310103251	東京家政大学	Tokyo Kasei University	173-8602	東京都板橋区加賀1-18-1	03-3961-5226	https://www.tokyo-kasei.ac.jp/	板橋キャンパス		35.755972	139.720599	公式ウェブサイト
236	32648	F113310103260	東京家政学院大学	Tokyo Kasei Gakuin University	102-8341	東京都千代田区三番町22	03-3262-2251	https://www.kasei-gakuin.ac.jp/	千代田三番町キャンパス	2026年4月共学化	35.691376	139.742225	公式ウェブサイト
237	32650	F113310103279	東京歯科大学	Tokyo Dental College	101-0061	東京都千代田区神田三崎町2-9-18	03-6380-9001	https://www.tdc.ac.jp/	水道橋キャンパス・水道橋校舎本館		35.701501	139.754917	公式ウェブサイト
238	32651	F113310103288	東京慈恵会医科大学	The Jikei University	105-8461	東京都港区西新橋3-25-8	0570-05-3333	https://www.jikei.ac.jp/univ/	西新橋キャンパス		35.662466	139.750818	公式ウェブサイト
239	32652	F113310103297	東京女子大学	Tokyo Woman’s Christian University	167-8585	東京都杉並区善福寺2-6-1	03-5382-6340	https://www.twcu.ac.jp/			35.709802	139.591373	公式ウェブサイト
240	32653	F113310103304	東京女子医科大学	Tokyo Women’s Medical University	162-8666	東京都新宿区河田町8-1	03-3353-8111	https://www.twmu.ac.jp/univ/	河田町キャンパス		35.697586	139.72041	公式ウェブサイト
241	32657	F113310103313	東京電機大学	Tokyo Denki University	120-8551	東京都足立区千住旭町5番	03-5284-5120	https://www.dendai.ac.jp/	東京千住キャンパス		35.748114	139.806125	公式ウェブサイト
242	32658	F113310103322	東京農業大学	Tokyo University of Agriculture	156-8502	東京都世田谷区桜丘1-1-1	03-5477-2908	https://www.nodai.ac.jp/	世田谷キャンパス		35.640656	139.632012	公式ウェブサイト
243	32659	F113310103331	東京薬科大学	Tokyo University of Pharmacy and Life Sciences	192-0392	東京都八王子市堀之内1432-1	042-676-5111	https://www.toyaku.ac.jp/			35.63861	139.383946	公式ウェブサイト
244	32660	F113310103340	東京理科大学	Tokyo University of Science	162-8601	東京都新宿区神楽坂1-3	03-3260-4271	https://www.tus.ac.jp/	神楽坂キャンパス		35.699399	139.741398	公式ウェブサイト
245	32661	F113310103359	東邦大学	Toho University	143-8540	東京都大田区大森西5-21-16	03-3762-4151	https://www.toho-u.ac.jp/	大森キャンパス		35.571032	139.725033	公式ウェブサイト
246	32663	F113310103368	東洋大学	Toyo University	112-8606	東京都文京区白山5-28-20	03-3945-7224	https://www.toyo.ac.jp/	白山キャンパス		35.723591	139.749675	公式ウェブサイト
247	32646	F113310103377	東京音楽大学	Tokyo College of Music	153-8622	東京都目黒区上目黒1-9-1	03-6455-2700	https://www.tokyo-ondai.ac.jp/	中目黒・代官山キャンパス		35.646921	139.699572	公式ウェブサイト
248	32664	F113310103386	二松學舍大學	Nishogakusha University	102-8336	東京都千代田区三番町6-16	03-3261-7407	https://www.nishogakusha-u.ac.jp/	九段キャンパス（九段1・2号館）		35.692331	139.74575	公式ウェブサイト
249	32665	F113310103395	日本大学	Nihon University	102-8275	東京都千代田区九段南4-8-24	03-5275-8110	https://www.nihon-u.ac.jp/	日本大学会館（本部）		35.691014	139.737574	公式ウェブサイト
250	32666	F113310103402	日本医科大学	Nippon Medical School	113-8602	東京都文京区千駄木1-1-5	03-3822-2131	https://www.nms.ac.jp/college/	千駄木キャンパス		35.721516	139.759186	公式ウェブサイト
251	32667	F113310103411	日本歯科大学	The Nippon Dental University	102-8159	東京都千代田区富士見1-9-20	03-3261-8311	https://www.ndu.ac.jp/	東京キャンパス		35.69781	139.745793	公式ウェブサイト
252	32668	F113310103420	日本社会事業大学	Japan College of Social Work	204-8555	東京都清瀬市竹丘3-1-30	042-496-3000	https://www.jcsw.ac.jp/	清瀬キャンパス		35.766493	139.507344	公式ウェブサイト
253	32670	F113310103439	日本女子大学	Japan Women’s University	112-8681	東京都文京区目白台2-8-1	03-3943-3131	https://www.jwu.ac.jp/unv/	目白キャンパス		35.716912	139.720422	公式ウェブサイト
254	32671	F113310103448	日本女子体育大学	Japan Women’s College of Physical Education	157-8565	東京都世田谷区北烏山8-19-1	03-3300-2258	https://www.jwcpe.ac.jp/			35.677272	139.590195	公式ウェブサイト
255	32672	F113310103457	日本体育大学	Nippon Sport Science University	158-8508	東京都世田谷区深沢7-1-1	03-5706-0900	https://www.nittai.ac.jp/	東京・世田谷キャンパス		35.6218	139.649162	公式ウェブサイト
256	32673	F113310103466	ルーテル学院大学	Japan Lutheran College	181-0015	東京都三鷹市大沢3-10-20	0422-31-4611	https://www.luther.ac.jp/		2025年度学生募集停止	35.688317	139.535183	公式ウェブサイト
257	32674	F113310103475	文化学園大学	Bunka Gakuen University	151-8523	東京都渋谷区代々木3-22-1	03-3299-2310	https://bwu.bunka.ac.jp/			35.685199	139.694312	公式ウェブサイト
258	32675	F113310103484	法政大学	Hosei University	102-8160	東京都千代田区富士見2-17-1	03-3264-9240	https://www.hosei.ac.jp/	市ケ谷キャンパス		35.695534	139.741399	公式ウェブサイト
259	32676	F113310103493	星薬科大学	Hoshi University	142-8501	東京都品川区荏原2-4-41	03-3786-1011	https://www.hoshi.ac.jp/			35.619282	139.711429	公式ウェブサイト
260	32677	F113310103509	武蔵大学	Musashi University	176-8534	東京都練馬区豊玉上1-26-1	03-5984-3713	https://www.musashi.ac.jp/	江古田キャンパス		35.737406	139.667967	公式ウェブサイト
261	32678	F113310103518	東京都市大学	Tokyo City University	158-8557	東京都世田谷区玉堤1-28-1	03-5707-0104	https://www.tcu.ac.jp/	世田谷キャンパス		35.598323	139.651024	公式ウェブサイト
262	32679	F113310103527	武蔵野音楽大学	Musashino Academia Musicae	176-8521	東京都練馬区羽沢1丁目13-1	03-3992-1121	https://www.musashino-music.ac.jp/	江古田キャンパス		35.741513	139.671931	公式ウェブサイト
263	32682	F113310103536	明治大学	Meiji University	101-8301	東京都千代田区神田駿河台1-1	03-3296-4545	https://www.meiji.ac.jp/	駿河台キャンパス		35.697242	139.761535	公式ウェブサイト
264	32683	F113310103545	明治学院大学	Meiji Gakuin University	108-8636	東京都港区白金台1-2-37	03-5421-5111	https://www.meijigakuin.ac.jp/	白金キャンパス		35.637506	139.731305	公式ウェブサイト
265	32684	F113310103554	明治薬科大学	Meiji Pharmaceutical University	204-8588	東京都清瀬市野塩2-522-1	042-495-8611	https://www.my-pharm.ac.jp/	清瀬キャンパス		35.78235	139.505918	公式ウェブサイト
266	32686	F113310103563	立教大学	Rikkyo University	171-8501	東京都豊島区西池袋3-34-1	03-3985-2220	https://www.rikkyo.ac.jp/	池袋キャンパス		35.730506	139.704029	公式ウェブサイト
267	32687	F113310103572	立正大学	Rissho University	141-8602	東京都品川区大崎4-2-16	03-3492-2681	https://www.ris.ac.jp/	品川キャンパス		35.620967	139.723338	公式ウェブサイト
268	32689	F113310103581	早稲田大学	Waseda University	169-8050	東京都新宿区西早稲田1-6-1	03-3203-4333	https://www.waseda.jp/top/	早稲田キャンパス（メインキャンパス）	本部は大隅会館（新宿区戸塚町）	35.708733	139.719649	公式ウェブサイト
269	32697	F113310103590	国際仏教学大学院大学	International College for Postgraduate Buddhist Studies	112-0003	東京都文京区春日2-8-9	03-5981-5271	https://www.icabs.ac.jp/			35.711528	139.740954	公式ウェブサイト
270	32829	F113310103616	東京国際工科専門職大学	International Professional University of Technology in Tokyo	160-0023	東京都新宿区西新宿1-7-3 総合校舎コクーンタワー	03-3344-5555	https://www.iput.ac.jp/tokyo/		2027年4月統合・改称予定（国際工科専門職大学）	35.6915291	139.6968724	公式ウェブサイト
271	32830	F113310103625	東京保健医療専門職大学	Tokyo Professional University of Health Sciences	135-0043	東京都江東区塩浜2-22-10	03-6272-5671	https://www.tpu.ac.jp/			35.6647127	139.8132843	公式ウェブサイト
272	32831	F113310103634	情報経営イノベーション専門職大学	Professional University of Information and Management for Innovation	131-0044	東京都墨田区文花1-18-13	03-5655-1555	https://www.i-u.ac.jp/	墨田キャンパス		35.7112577	139.8236043	公式ウェブサイト
273	32827	F113310103643	大学院大学至善館	Graduate School of Leadership and Innovation, Shizenkan University	103-6117	東京都中央区日本橋2-5-1 日本橋高島屋三井ビルディング17階	03-6281-9011	https://shizenkan.ac.jp/			35.681296	139.774286	公式ウェブサイト
274	32826	F113310103652	東京通信大学	Tokyo Online University	160-0023	東京都新宿区西新宿1-7-3	03-3344-2222	https://www.internet.ac.jp/	新宿駅前キャンパス		35.691571	139.697084	公式ウェブサイト
275	32828	F113310103661	国際ファッション専門職大学	Professional Institute of International Fashion	160-0023	東京都新宿区西新宿1-7-3 総合校舎コクーンタワー	03-3344-8000	https://www.piif.ac.jp/	東京キャンパス		35.691571	139.697084	公式ウェブサイト
276	32696	F113310103670	駒沢女子大学	Komazawa Women’s University	206-8511	東京都稲城市坂浜238	042-350-7111	https://www.komajo.ac.jp/uni/			35.627786	139.494274	公式ウェブサイト
277	32602	F113310103689	亜細亜大学	Asia University	180-8629	東京都武蔵野市境5-8	0422-36-3241	https://www.asia-u.ac.jp/	武蔵野キャンパス		35.704813	139.53518	公式ウェブサイト
278	32605	F113310103698	桜美林大学	J. F. Oberlin University	194-0294	東京都町田市常盤町3758	042-797-9772	https://www.obirin.ac.jp/	町田キャンパス		35.581625	139.407508	公式ウェブサイト
279	32611	F113310103705	国立音楽大学	Kunitachi College of Music	190-8520	東京都立川市柏町5-5-1	042-535-9508	https://www.kunitachi.ac.jp/			35.732059	139.412714	公式ウェブサイト
280	32615	F113310103714	国際基督教大学	International Christian University	181-8585	東京都三鷹市大沢3-10-2	0422-33-3016	https://www.icu.ac.jp/			35.687537	139.529551	公式ウェブサイト
281	32627	F113310103723	白百合女子大学	Shirayuri University	182-8525	東京都調布市緑ヶ丘1-25	03-3326-5050	https://www.shirayuri.ac.jp/			35.668165	139.581102	公式ウェブサイト
282	32629	F113310103732	成蹊大学	Seikei University	180-8633	東京都武蔵野市吉祥寺北町3-3-1	0422-37-3531	https://www.seikei.ac.jp/university/			35.711582	139.573368	公式ウェブサイト
283	32639	F113310103741	玉川大学	Tamagawa University	194-8610	東京都町田市玉川学園6-1-1	042-739-8111	https://www.tamagawa.jp/university/			35.56705	139.468364	公式ウェブサイト
284	32642	F113310103750	津田塾大学	Tsuda University	187-8577	東京都小平市津田町2-1-1	042-342-5111	https://www.tsuda.ac.jp/	小平キャンパス		35.721522	139.466216	公式ウェブサイト
285	32643	F113310103769	帝京大学	Teikyo University	173-8605	東京都板橋区加賀2-11-1	03-3964-1211	https://www.teikyo-u.ac.jp/	板橋キャンパス		35.759275	139.714503	公式ウェブサイト
286	32649	F113310103778	東京経済大学	Tokyo Keizai University	185-8502	東京都国分寺市南町1-7-34	042-328-7711	https://www.tku.ac.jp/	国分寺キャンパス		35.699779	139.490167	公式ウェブサイト
287	32654	F113310103787	東京女子体育大学	Tokyo Women’s College of Physical Education	186-8668	東京都国立市富士見台4-30-1	042-572-4131	https://www.twcpe.ac.jp/			35.688895	139.427906	公式ウェブサイト
288	32655	F113310103796	東京神学大学	Tokyo Union Theological Seminary	181-0015	東京都三鷹市大沢3-10-30	0422-32-4185	https://www.tuts.ac.jp/			35.687993	139.534507	公式ウェブサイト
289	32656	F113310103803	東京造形大学	Tokyo Zokei University	192-0992	東京都八王子市宇津貫町1556	042-637-8111	https://www.zokei.ac.jp/			35.615358	139.334875	公式ウェブサイト
290	32662	F113310103812	桐朋学園大学	Toho Gakuen School of Music	182-8510	東京都調布市若葉町1-41-1	03-3307-4101	https://www.tohomusic.ac.jp/college/	仙川キャンパス		35.659017	139.585204	公式ウェブサイト
291	32669	F113310103821	日本獣医生命科学大学	Nippon Veterinary and Life Science University	180-8602	東京都武蔵野市境南町1-7-1	0422-31-4151	https://www.nvlu.ac.jp/			35.701774	139.547412	公式ウェブサイト
292	32680	F113310103830	武蔵野大学	Musashino University	135-8181	東京都江東区有明三丁目3番3号	03-5530-7333	https://www.musashino-u.ac.jp/	有明キャンパス		35.630641	139.78663	公式ウェブサイト
293	32681	F113310103849	武蔵野美術大学	Musashino Art University	187-8505	東京都小平市小川町1-736	042-342-6021	https://www.musabi.ac.jp/	鷹の台キャンパス		35.72619	139.447649	公式ウェブサイト
294	32685	F113310103858	明星大学	Meisei University	191-8506	東京都日野市程久保2-1-1	042-591-5111	https://www.meisei-u.ac.jp/	日野校		35.644889	139.408481	公式ウェブサイト
295	32688	F113310103867	和光大学	Wako University	195-8585	東京都町田市金井ヶ丘5丁目1番1号	044-988-1431	https://www.wako.ac.jp/			35.575005	139.473604	公式ウェブサイト
296	32610	F113310103876	杏林大学	Kyorin University	181-8611	東京都三鷹市新川6-20-2	0422-47-5511	https://www.kyorin-u.ac.jp/	三鷹キャンパス		35.67748	139.566503	公式ウェブサイト
297	32690	F113310103885	創価大学	Soka University	192-8577	東京都八王子市丹木町1-236	042-691-2211	https://www.soka.ac.jp/			35.690812	139.326934	公式ウェブサイト
298	32691	F113310103894	日本文化大学	Nihon Bunka University	192-0986	東京都八王子市片倉町977番地	042-636-5211	https://nihonbunka-u.ac.jp/	八王子キャンパス		35.634645	139.341793	公式ウェブサイト
299	32692	F113310103901	東京工科大学	Tokyo University of Technology	192-0982	東京都八王子市片倉町1404-1	042-637-2111	https://www.teu.ac.jp/	八王子キャンパス	法人本部は蒲田キャンパス	35.626303	139.33935	公式ウェブサイト
300	32693	F113310103910	日本赤十字看護大学	Japanese Red Cross College of Nursing	150-0012	東京都渋谷区広尾4丁目1番3号	03-3409-0875	https://www.redcross.ac.jp/	広尾キャンパス		35.653198	139.718911	公式ウェブサイト
301	32694	F113310103929	恵泉女学園大学	Keisen University	206-8586	東京都多摩市南野2-10-1	042-376-8211	https://www.keisen.ac.jp/		2024年度学生募集停止	35.608571	139.436114	公式ウェブサイト
302	32695	F113310103938	多摩大学	Tama University	206-0022	東京都多摩市聖ヶ丘4-1-1	042-337-1111	https://www.tama.ac.jp/	多摩キャンパス		35.630514	139.464281	公式ウェブサイト
303	32698	F113310103947	東京純心大学	Tokyo Junshin University	192-0011	東京都八王子市滝山町2丁目600番地	042-692-0326	https://www.t-junshin.ac.jp/univ/			35.693434	139.334897	公式ウェブサイト
304	32801	F113310103956	嘉悦大学	Kaetsu University	187-8578	東京都小平市花小金井南町2-8-4	042-466-3711	https://www.kaetsu.ac.jp/			35.720754	139.515711	公式ウェブサイト
305	32803	F113310103965	東京富士大学	Tokyo Fuji University	161-8556	東京都新宿区下落合1-7-7	03-3362-7297	https://www.fuji.ac.jp/	髙田記念館		35.7153367	139.6999574	公式ウェブサイト
306	32806	F113310103974	LEC東京リーガルマインド大学院大学	LEC Graduate School of Accounting	101-0061	東京都千代田区三崎町2-2-15 Daiwa三崎町ビル7階	03-3222-5184	https://www.lec.ac.jp/	本館		35.699807	139.754825	公式ウェブサイト
307	32805	F113310103983	デジタルハリウッド大学	Digital Hollywood University	101-0062	東京都千代田区神田駿河台4-6 御茶ノ水ソラシティ アカデミア3F/4F	0120-823-422	https://www.dhw.ac.jp/	駿河台キャンパス		35.698564	139.766475	公式ウェブサイト
308	32808	F113310103992	白梅学園大学	Shiraume Gakuen University	187-8570	東京都小平市小川町1-830	042-342-2311	https://daigaku.shiraume.ac.jp/			35.724436	139.451307	公式ウェブサイト
309	32809	F113310104009	東京医療保健大学	Tokyo Healthcare University	141-8648	東京都品川区東五反田4-1-17	03-5421-7655	https://www.thcu.ac.jp/	五反田キャンパス		35.631476	139.726413	公式ウェブサイト
310	32810	F113310104018	東京聖栄大学	Tokyo Seiei College	124-8530	東京都葛飾区西新小岩1-4-6	03-3692-0211	https://www.tsc-05.ac.jp/			35.71795	139.856847	公式ウェブサイト
311	32807	F113310104027	ビジネス・ブレークスルー大学	Business BreakThrough University	102-0084	東京都千代田区二番町3番地 麹町スクエア1F	0120-970-021	https://bbt.ac/	麹町校舎		35.686058	139.737277	公式ウェブサイト
312	32813	F113310104036	グロービス経営大学院大学	Graduate School of Management, Globis University	102-0084	東京都千代田区二番町5-1 住友不動産麹町ビル	03-5275-3981	https://mba.globis.ac.jp/	東京校		35.685401	139.736882	公式ウェブサイト
313	32815	F113310104045	文化ファッション大学院大学	Bunka Fashion Graduate University	151-8547	東京都渋谷区代々木3-22-1	03-3299-2701	https://bfgu-bunka.ac.jp/			35.684918	139.695032	公式ウェブサイト
314	32811	F113310104054	大原大学院大学	Ohara Graduate School of Accounting	101-0065	東京都千代田区西神田1-2-10	03-3237-8760	https://www.o-hara.ac.jp/grad/			35.6991283	139.7567172	公式ウェブサイト
315	32816	F113310104063	東京未来大学	Tokyo Future University	120-0023	東京都足立区千住曙町34-12	03-5813-2525	https://www.tokyomirai.ac.jp/			35.743399	139.816922	公式ウェブサイト
316	32819	F113310104072	ハリウッド大学院大学	Hollywood Graduate School of Beauty Business	106-8541	東京都港区六本木6-4-1 六本木ヒルズ ハリウッドビューティプラザ	03-3403-3403	https://mba.hollywood.ac.jp/			35.661384	139.730135	公式ウェブサイト
317	32724	F113310104081	SBI大学院大学	SBI Graduate School	106-6021	東京都港区六本木1-6-1 泉ガーデンタワー21階	03-6229-1175	https://www.sbi-u.ac.jp/			35.664573	139.7395626	公式ウェブサイト
318	32820	F113310104090	こども教育宝仙大学	Hosen College of Childhood Education	164-8631	東京都中野区中央2-33-26	03-3365-0267	https://hosen.ac.jp/			35.699841	139.679171	公式ウェブサイト
319	32821	F113310104107	東京有明医療大学	Tokyo Ariake University of Medical and Health Sciences	135-0063	東京都江東区有明2丁目9番1号	03-6703-7000	https://www.tau.ac.jp/			35.641901	139.79666	公式ウェブサイト
320	32708	F113310104116	東京工芸大学	Tokyo Polytechnic University	164-8678	東京都中野区本町2-9-5	03-3372-1321	https://www.t-kougei.ac.jp/	中野キャンパス		35.6931607	139.6796368	公式ウェブサイト
321	32715	F113310104125	産業能率大学	Sanno University	158-8630	東京都世田谷区等々力6-39-15	03-3704-9955	https://www.sanno.ac.jp/	自由が丘キャンパス		35.613518	139.661498	公式ウェブサイト
322	32822	F113310104134	ヤマザキ動物看護大学	Yamazaki University of Animal Health Technology	192-0364	東京都八王子市南大沢4-7-2	042-653-0901	https://univ.yamazaki.ac.jp/univ/	南大沢キャンパス		35.610102	139.374448	公式ウェブサイト
323	32823	F113310104143	東京医療学院大学	University of Tokyo Health Sciences	206-0033	東京都多摩市落合4-11	042-373-8118	https://www.u-ths.ac.jp/			35.612223	139.429348	公式ウェブサイト
324	32824	F113310104152	事業構想大学院大学	The Graduate School of Project Design	107-8411	東京都港区南青山3-13-16	03-3478-8411	https://www.mpd.ac.jp/	1号館		35.665363	139.713655	公式ウェブサイト
325	32825	F113310104161	社会構想大学院大学	The Graduate School of Social Design	169-8518	東京都新宿区高田馬場1-25-30	03-3207-0005	https://www.socialdesign.ac.jp/			35.712338	139.706532	公式ウェブサイト
326	33501	F113310104170	帝京科学大学	Teikyo University of Science	120-0045	東京都足立区千住桜木2-2-1	03-6910-1010	https://www.ntu.ac.jp/	千住キャンパス		35.753639	139.789578	公式ウェブサイト
327	32832	F113310104189	東京情報デザイン専門職大学	Tokyo Information Design Professional University	132-0034	東京都江戸川区小松川2-7-1	03-5875-3117	https://www.tid.ac.jp/		2023年4月開学	35.6959642	139.8523271	公式ウェブサイト
328	32402	F113310104198	東京国際大学	Tokyo International University	170-0013	東京都豊島区東池袋4-42-31	03-5992-5555	https://www.tiu.ac.jp/	池袋キャンパス	2023年9月新校舎開設・本部移転	35.7284138	139.7215601	公式ウェブサイト
329	32833	F113310112027	東京経営大学	Tokyo Management University	101-0065	東京都千代田区西神田2丁目2-10	03-6261-7605	https://tokyomanagement-u.ac.jp/		2025年4月開学	35.6987403	139.7555886	公式ウェブサイト
330	12701	F114110104592	横浜国立大学	Yokohama National University	240-8501	神奈川県横浜市保土ケ谷区常盤台79-1	045-339-3014	https://www.ynu.ac.jp/			35.474654	139.588147	国立大学協会：一般社団法人国立大学協会概要’22（会員名簿），＜https://www.janu.jp/wp/wp-content/uploads/2022/10/members_20221001.pdf＞
331	12702	F114110104609	総合研究大学院大学	SOKENDAI (The Graduate University for Advanced Studies)	240-0193	神奈川県三浦郡葉山町（湘南国際村）	046-858-1500	https://www.soken.ac.jp/	葉山キャンパス		35.261095	139.608389	国立大学協会：一般社団法人国立大学協会概要’22（会員名簿），＜https://www.janu.jp/wp/wp-content/uploads/2022/10/members_20221001.pdf＞
332	22701	F114210104616	横浜市立大学	Yokohama City University	236-0027	神奈川県横浜市金沢区瀬戸22-2	045-787-2311	https://www.yokohama-cu.ac.jp/	金沢八景キャンパス		35.33385	139.618239	公立大学協会：会員校一覧，＜https://www.kodaikyo.org/?page_id=718＞
333	22702	F114210104625	神奈川県立保健福祉大学	Kanagawa University of Human Services	238-8522	神奈川県横須賀市平成町1丁目10番1号	046-828-2500	https://www.kuhs.ac.jp/	横須賀キャンパス		35.273828	139.681169	公立大学協会：会員校一覧，＜https://www.kodaikyo.org/?page_id=718＞
334	22703	F114210111993	川崎市立看護大学	Kawasaki City College of Nursing	212-0054	神奈川県川崎市幸区小倉4丁目30番地1号	044-587-3500	https://www.kawasaki-cn.ac.jp/			35.535836	139.669779	公立大学協会：会員校一覧，＜https://www.kodaikyo.org/?page_id=718＞
335	30124	F114310104632	星槎大学	Seisa University	250-0631	神奈川県足柄下郡箱根町仙石原817-255	0460-83-8202	https://seisa.ac.jp/	箱根キャンパス	大学本部（横浜事務局）は横浜市青葉区	35.268218	139.00699	公式ウェブサイト
336	32702	F114310104641	神奈川大学	Kanagawa University	221-8686	神奈川県横浜市神奈川区六角橋3-27-1	045-481-5661	https://www.kanagawa-u.ac.jp/	横浜キャンパス		35.484183	139.620867	公式ウェブサイト
337	32704	F114310104650	関東学院大学	Kanto Gakuin University	236-8501	神奈川県横浜市金沢区六浦東1-50-1	045-786-7002	https://univ.kanto-gakuin.ac.jp/	横浜・金沢八景キャンパス		35.323327	139.622889	公式ウェブサイト
338	32710	F114310104669	鶴見大学	Tsurumi University	230-8501	神奈川県横浜市鶴見区鶴見2-1-3	045-580-8627	https://www.tsurumi-u.ac.jp/			35.504954	139.672771	公式ウェブサイト
339	32711	F114310104678	フェリス女学院大学	Ferris University	245-8650	神奈川県横浜市泉区緑園4-5-3	045-812-8211	https://www.ferris.ac.jp/	緑園キャンパス		35.437147	139.650457	公式ウェブサイト
340	32712	F114310104687	横浜商科大学	Yokohama College of Commerce	230-8577	神奈川県横浜市鶴見区東寺尾4-11-1	045-571-3901	https://www.shodai.ac.jp/	つるみキャンパス		35.498552	139.659531	公式ウェブサイト
341	32722	F114310104696	八洲学園大学	Yashima Gakuen University	220-0021	神奈川県横浜市西区桜木町7丁目42番地	045-410-0515	https://www.yashima.ac.jp/univ/			35.459121	139.622781	公式ウェブサイト
342	32721	F114310104703	情報セキュリティ大学院大学	Institute of Information Security	221-0835	神奈川県横浜市神奈川区鶴屋町2-14-1	045-311-7784	https://www.iisec.ac.jp/			35.468085	139.623304	公式ウェブサイト
343	32723	F114310104712	横浜薬科大学	Yokohama University of Pharmacy	245-0066	神奈川県横浜市戸塚区俣野町601	045-859-1300	https://www.hamayaku.ac.jp/			35.384717	139.494019	公式ウェブサイト
344	32701	F114310104721	麻布大学	Azabu University	252-5201	神奈川県相模原市中央区淵野辺1-17-71	042-754-7111	https://www.azabu-u.ac.jp/			35.576338	139.390494	公式ウェブサイト
345	32703	F114310104730	神奈川歯科大学	Kanagawa Dental University	238-8580	神奈川県横須賀市稲岡町82番地	046-822-8751	https://www.kdu.ac.jp/			35.28435	139.670085	公式ウェブサイト
346	32705	F114310104749	鎌倉女子大学	Kamakura Women’s University	247-8512	神奈川県鎌倉市大船6丁目1番3号	0467-44-2111	https://www.kamakura-u.ac.jp/	大船キャンパス	2029年4月改称・共学化予定（鎌倉大学）	35.353051	139.539409	公式ウェブサイト
347	32706	F114310104758	湘南工科大学	Shonan Institute of Technology	251-8511	神奈川県藤沢市辻堂西海岸1-1-25	0466-30-0257	https://www.shonan-it.ac.jp/			35.325043	139.45329	公式ウェブサイト
348	32707	F114310104767	相模女子大学	Sagami Women’s University	252-0383	神奈川県相模原市南区文京2-1-1	042-742-1411	https://www.sagami-wu.ac.jp/			35.532448	139.430215	公式ウェブサイト
349	32709	F114310104776	洗足学園音楽大学	Senzoku Gakuen College of Music	213-8580	神奈川県川崎市高津区久本2-3-1	044-856-2727	https://www.senzoku.ac.jp/music/	溝の口キャンパス		35.594565	139.614291	公式ウェブサイト
350	32713	F114310104785	聖マリアンナ医科大学	St. Marianna University School of Medicine	216-8511	神奈川県川崎市宮前区菅生2-16-1	044-977-8111	https://www.marianna-u.ac.jp/			35.599865	139.549066	公式ウェブサイト
351	32714	F114310104794	神奈川工科大学	Kanagawa Institute of Technology	243-0292	神奈川県厚木市下荻野1030	046-291-3250	https://www.kait.jp/			35.486492	139.342669	公式ウェブサイト
352	32716	F114310104801	昭和音楽大学	Showa University of Music	215-8558	神奈川県川崎市麻生区上麻生1-11-1	044-953-1121	https://www.tosei-showa-music.ac.jp/	南校舎		35.600787	139.507987	公式ウェブサイト
353	32717	F114310104810	桐蔭横浜大学	Toin University of Yokohama	225-8503	神奈川県横浜市青葉区鉄町1614番地	045-972-5881	https://toin.ac.jp/univ/			35.566226	139.51826	公式ウェブサイト
354	32718	F114310104829	東洋英和女学院大学	Toyo Eiwa University	226-0015	神奈川県横浜市緑区三保町32	045-922-5511	https://www.toyoeiwa.ac.jp/daigaku/	横浜校地		35.508547	139.510643	公式ウェブサイト
355	32719	F114310104838	松蔭大学	Shoin University	243-0124	神奈川県厚木市森の里若宮9-1	046-247-1511	https://www.shoin-u.ac.jp/	厚木森の里キャンパス		35.44293	139.316314	公式ウェブサイト
356	32720	F114310104847	田園調布学園大学	Den-en Chofu University	215-8542	神奈川県川崎市麻生区東百合丘3-4-1	044-966-9211	https://www.dcu.ac.jp/			35.595218	139.524623	公式ウェブサイト
357	32725	F114310104856	横浜美術大学	Yokohama University of Art and Design	227-0033	神奈川県横浜市青葉区鴨志田町1204	045-962-2221	https://www.yokohama-art.ac.jp/			35.557255	139.497487	公式ウェブサイト
358	32726	F114310104865	日本映画大学	Japan Institute of the Moving Image	215-0004	神奈川県川崎市麻生区万福寺1-16-30	044-951-2511	https://www.eiga.ac.jp/	新百合ヶ丘キャンパス		35.604958	139.507627	公式ウェブサイト
359	32727	F114310104874	横浜創英大学	Yokohama Soei University	226-0015	神奈川県横浜市緑区三保町1番地	045-922-6105	https://www.soei.ac.jp/			35.511875	139.510419	公式ウェブサイト
360	32728	F114310104883	湘南医療大学	Shonan University of Medical Sciences	244-0806	神奈川県横浜市戸塚区上品濃16-48	045-821-0111	https://sums.ac.jp/	東戸塚キャンパス（保健医療学部棟・大学院棟）		35.437326	139.548933	公式ウェブサイト
361	32729	F114310104892	湘南鎌倉医療大学	Shonan Kamakura University of Medical Sciences	247-0066	神奈川県鎌倉市山崎1195-3	0467-38-3131	https://www.sku.ac.jp/			35.3426069	139.527085	公式ウェブサイト
362	32731	F114310104909	ビューティ＆ウェルネス専門職大学	Proessional University of Beauty & Wellness	224-0012	神奈川県横浜市都筑区牛久保3-9-3	045-530-9119	https://www.b-w.ac.jp/		2023年4月開学	35.5693589	139.5722004	公式ウェブサイト
363	32730	F114310104918	グローバルBiz専門職大学	Globiz Professional University	210-0007	神奈川県川崎市川崎区駅前本町22-1	044-589-8777	https://gpu.ac.jp/		2023年4月開学	35.5339581	139.7008287	公式ウェブサイト
364	32732	F114310112053	ZEN大学	ZEN University	249-0007	神奈川県逗子市新宿3丁目12番11号	0120-919-124	https://zen.ac.jp/	逗子キャンパス	2025年4月開学	35.2975264	139.5701429	公式ウェブサイト
365	13101	F115110105046	新潟大学	Niigata University	950-2181	新潟県新潟市西区五十嵐2の町8050番地	025-223-6161	https://www.niigata-u.ac.jp/	五十嵐キャンパス		37.86701	138.942539	国立大学協会：一般社団法人国立大学協会概要’22（会員名簿），＜https://www.janu.jp/wp/wp-content/uploads/2022/10/members_20221001.pdf＞
366	13102	F115110105055	長岡技術科学大学	Nagaoka University of Technology	940-2188	新潟県長岡市上富岡町1603-1	0258-46-6000	https://www.nagaokaut.ac.jp/			37.426744	138.77945	国立大学協会：一般社団法人国立大学協会概要’22（会員名簿），＜https://www.janu.jp/wp/wp-content/uploads/2022/10/members_20221001.pdf＞
367	13103	F115110105064	上越教育大学	Joetsu University of Education	943-8512	新潟県上越市山屋敷町1番地	025-521-3214	https://www.juen.ac.jp/			37.137025	138.224899	国立大学協会：一般社団法人国立大学協会概要’22（会員名簿），＜https://www.janu.jp/wp/wp-content/uploads/2022/10/members_20221001.pdf＞
368	23101	F115210105071	新潟県立看護大学	Niigata College of Nursing	943-0147	新潟県上越市新南町240番地	0255-26-2811	https://www.niigata-cn.ac.jp/			37.105746	138.268429	公立大学協会：会員校一覧，＜https://www.kodaikyo.org/?page_id=718＞
369	23102	F115210105080	新潟県立大学	University of Niigata Prefecture	950-8680	新潟県新潟市東区海老ケ瀬471番地	025-270-1300	https://www.unii.ac.jp/			37.9237	139.12701	公立大学協会：会員校一覧，＜https://www.kodaikyo.org/?page_id=718＞
370	23103	F115210105099	長岡造形大学	Nagaoka Institute of Design	940-2088	新潟県長岡市千秋4丁目197番地	0258-21-3311	https://www.nagaoka-id.ac.jp/			37.466582	138.830878	公立大学協会：会員校一覧，＜https://www.kodaikyo.org/?page_id=718＞
371	23104	F115210111849	三条市立大学	Sanjo City University	955-0091	新潟県三条市上須頃5002番地5	0256-47-5511	https://www.sanjo-u.ac.jp/			37.643842	138.9309084	公立大学協会：会員校一覧，＜https://www.kodaikyo.org/?page_id=718＞
372	33110	F115310105104	長岡大学	Nagaoka University	940-0828	新潟県長岡市御山町80-8	0258-39-1600	https://www.nagaokauniv.ac.jp/			37.430476	138.879152	公式ウェブサイト
373	33111	F115310105113	新潟医療福祉大学	Niigata University of Health and Welfare	950-3198	新潟県新潟市北区島見町1398	025-257-4455	https://www.nuhw.ac.jp/			37.965571	139.186668	公式ウェブサイト
374	33109	F115310105122	新潟青陵大学	Niigata Seiryo University	951-8121	新潟県新潟市中央区水道町1-5939	025-266-0127	https://www.n-seiryo.ac.jp/			37.92094	139.024658	公式ウェブサイト
375	33108	F115310105131	新潟工科大学	Niigata Institute of Technology	945-1195	新潟県柏崎市藤橋1719	0257-22-8111	https://www.niit.ac.jp/			37.339278	138.578992	公式ウェブサイト
376	33106	F115310105140	新潟経営大学	Niigata University of Management	959-1321	新潟県加茂市希望ケ丘2909-2	0256-53-3000	https://www.niigataum.ac.jp/			37.672061	139.064022	公式ウェブサイト
377	33107	F115310105159	新潟国際情報大学	Niigata University of International and Information Studies	950-2292	新潟県新潟市西区みずき野3-1-1	025-239-3111	https://www.nuis.ac.jp/	みずき野キャンパス		37.816781	138.900857	公式ウェブサイト
378	33104	F115310105168	敬和学園大学	Keiwa College	957-8585	新潟県新発田市富塚1270	0254-26-3636	https://www.keiwa-c.ac.jp/			37.956325	139.292275	公式ウェブサイト
379	33101	F115310105177	新潟薬科大学	Niigata University of Pharmacy and Applied Life Sciences	956-8603	新潟県新潟市秋葉区東島字山居265-1	0250-25-5000	https://www.nupals.ac.jp/	新津キャンパス		37.774686	139.122703	公式ウェブサイト
380	33102	F115310105186	国際大学	International University of Japan	949-7277	新潟県南魚沼市国際町777番地	025-779-1111	https://www.iuj.ac.jp/			37.14845	138.947662	公式ウェブサイト
381	33103	F115310105195	新潟産業大学	Niigata Sangyo University	945-1393	新潟県柏崎市大字軽井川4730	0257-24-6655	https://www.nsu.ac.jp/			37.334519	138.592923	公式ウェブサイト
382	33112	F115310105202	開志創造大学	Kaishi Innovation University	950-0916	新潟県新潟市中央区米山3-1-46	025-255-1250	https://www.jigyo.ac.jp/	新潟キャンパス	2026年4月学部設置・改称（旧・事業創造大学院大学，Graduate Institute for Entrepreneurial Studies）	37.907991	139.061897	公式ウェブサイト
383	33113	F115310105211	新潟リハビリテーション大学	Niigata University of Rehabilitation	958-0053	新潟県村上市上の山2-16	0254-56-8292	https://nur.ac.jp/			38.185575	139.439936	公式ウェブサイト
384	33114	F115310105220	新潟食料農業大学	Niigata Agro-Food University	959-2702	新潟県胎内市平根台2416	0254-28-9855	https://nafu.ac.jp/	胎内キャンパス		38.087396	139.374317	公式ウェブサイト
385	33116	F115310105239	開志専門職大学	Kaishi Professional University	950-0914	新潟県新潟市中央区紫竹山6-3-5	025-240-8118	https://kaishi-pu.ac.jp/	紫竹山キャンパス		37.8972631	139.0664564	公式ウェブサイト
386	33115	F115310105248	長岡崇徳大学	Nagaoka Sutoku University	940-2135	新潟県長岡市深沢町2278番地8	0258-46-6666	https://sutoku-u.ac.jp/			37.424947	138.772751	公式ウェブサイト
387	13201	F116110105312	富山大学	University of Toyama	930-8555	富山県富山市五福3190	076-445-6011	https://www.u-toyama.ac.jp/	五福キャンパス		36.69934	137.186143	国立大学協会：一般社団法人国立大学協会概要’22（会員名簿），＜https://www.janu.jp/wp/wp-content/uploads/2022/10/members_20221001.pdf＞
388	23201	F116210105329	富山県立大学	Toyama Prefectural University	939-0398	富山県射水市黒河5180番地	0766-56-7500	https://www.pu-toyama.ac.jp/	射水キャンパス		36.706477	137.097504	公立大学協会：会員校一覧，＜https://www.kodaikyo.org/?page_id=718＞
389	33201	F116310105336	高岡法科大学	Takaoka University of Law	939-1193	富山県高岡市戸出石代307-3	0766-63-3388	https://www.takaoka.ac.jp/		2025年度学生募集停止	36.669578	137.001335	公式ウェブサイト
390	33202	F116310105345	富山国際大学	Toyama University of International Studies	930-1292	富山県富山市東黒牧65-1	076-483-8000	https://www.tuins.ac.jp/	東黒牧キャンパス		36.599739	137.274019	公式ウェブサイト
391	33203	F116310105354	桐朋学園大学院大学	Toho Gakuen Graduate School	930-0138	富山県富山市呉羽町1884-17	076-434-6800	https://www.tohomusic.ac.jp/diploma/	富山キャンパス		36.717562	137.164896	公式ウェブサイト
392	13301	F117110105393	金沢大学	Kanazawa University	920-1192	石川県金沢市角間町	076-264-5111	https://www.kanazawa-u.ac.jp/	角間キャンパス		36.545985	136.708738	国立大学協会：一般社団法人国立大学協会概要’22（会員名簿），＜https://www.janu.jp/wp/wp-content/uploads/2022/10/members_20221001.pdf＞
393	13302	F117110105400	北陸先端科学技術大学院大学	Japan Advanced Institute of Science and Technology	923-1292	石川県能美市旭台1-1	0761-51-1111	https://www.jaist.ac.jp/			36.444154	136.593097	国立大学協会：一般社団法人国立大学協会概要’22（会員名簿），＜https://www.janu.jp/wp/wp-content/uploads/2022/10/members_20221001.pdf＞
394	23304	F117210105417	公立小松大学	Komatsu University	923-8511	石川県小松市四丁町ヌ1番地3	0761-41-6700	https://www.komatsu-u.ac.jp/	粟津キャンパス		36.354896	136.417151	公立大学協会：会員校一覧，＜https://www.kodaikyo.org/?page_id=718＞
395	23303	F117210105426	石川県立大学	Ishikawa Prefectural University	921-8836	石川県野々市市末松1丁目308番地	076-227-7220	https://www.ishikawa-pu.ac.jp/			36.506581	136.596729	公立大学協会：会員校一覧，＜https://www.kodaikyo.org/?page_id=718＞
396	23301	F117210105435	金沢美術工芸大学	Kanazawa College of Art	920-8656	石川県金沢市小立野2-40-1	076-262-3531	https://www.kanazawa-bidai.ac.jp/		2023年10月新校舎開設・移転	36.5475242	136.6817544	公立大学協会：会員校一覧，＜https://www.kodaikyo.org/?page_id=718＞
397	23302	F117210105444	石川県立看護大学	Ishikawa Prefectural Nursing University	929-1210	石川県かほく市学園台1丁目1番地	076-281-8300	https://www.ishikawa-nu.ac.jp/			36.780774	136.734158	公立大学協会：会員校一覧，＜https://www.kodaikyo.org/?page_id=718＞
398	33301	F117310105451	金沢星稜大学	Kanazawa Seiryo University	920-8620	石川県金沢市御所町丑10番地1	076-253-3924	https://www.seiryo-u.ac.jp/u/			36.584169	136.682253	公式ウェブサイト
399	33302	F117310105460	金沢工業大学	Kanazawa Institute of Technology	921-8501	石川県野々市市扇が丘7-1	076-248-1100	https://www.kanazawa-it.ac.jp/	扇が丘キャンパス		36.529954	136.627205	公式ウェブサイト
400	33303	F117310105479	金沢医科大学	Kanazawa Medical University	920-0293	石川県河北郡内灘町大学1丁目1番地	076-286-2211	https://www.kanazawa-med.ac.jp/			36.65534	136.646489	公式ウェブサイト
401	33304	F117310105488	北陸大学	Hokuriku University	920-1180	石川県金沢市太陽が丘1-1	076-229-1161	https://www.hokuriku-u.ac.jp/	太陽が丘キャンパス		36.525433	136.707513	公式ウェブサイト
402	33305	F117310105497	金沢学院大学	Kanazawa Gakuin University	920-1392	石川県金沢市末町10	076-229-1181	https://www.kanazawa-gu.ac.jp/			36.517451	136.695055	公式ウェブサイト
403	33306	F117310105503	金城大学	Kinjo University	924-8511	石川県白山市笠間町1200	076-276-4400	https://www.kinjo.ac.jp/ku/	笠間キャンパス		36.508765	136.529356	公式ウェブサイト
404	33307	F117310105512	北陸学院大学	Hokuriku Gakuin University	920-1396	石川県金沢市三小牛町イ11番地	076-280-3850	https://www.hokurikugakuin.ac.jp/univ/			36.517373	136.670948	公式ウェブサイト
405	33308	F117310111854	かなざわ食マネジメント専門職大学	Kanazawa Professional University of Food Management	924-0011	石川県白山市横江町5250	076-275-5933	https://kanazawa-pu.ac.jp/	白山キャンパス	2023年2月地番変更	36.5451116	136.5901521	公式ウェブサイト
406	13401	F118110105597	福井大学	University of Fukui	910-8507	福井県福井市文京3-9-1	0776-23-0500	https://www.u-fukui.ac.jp	文京キャンパス		36.076954	136.211774	国立大学協会：一般社団法人国立大学協会概要’22（会員名簿），＜https://www.janu.jp/wp/wp-content/uploads/2022/10/members_20221001.pdf＞
407	23401	F118210105602	福井県立大学	Fukui Prefectural University	910-1195	福井県吉田郡永平寺町松岡兼定島4-1-1	0776-61-6000	https://www.fpu.ac.jp/	永平寺キャンパス		36.109812	136.277572	公立大学協会：会員校一覧，＜https://www.kodaikyo.org/?page_id=718＞
408	23402	F118210105611	敦賀市立看護大学	Tsuruga Nursing University	914-0814	福井県敦賀市木崎78号2番地-1	0770-20-5500	https://tsuruga-nu.ac.jp/			35.64508	136.033749	公立大学協会：会員校一覧，＜https://www.kodaikyo.org/?page_id=718＞
409	33401	F118310105628	福井工業大学	Fukui University of Technology	910-8505	福井県福井市学園3丁目6番1号	0776-29-2620	https://www.fukui-ut.ac.jp/	福井キャンパス		36.068982	136.196068	公式ウェブサイト
410	33403	F118310105637	仁愛大学	Jin-ai University	915-8586	福井県越前市大手町3-1-1	0778-27-2010	https://www.jindai.ac.jp/			35.891428	136.211375	公式ウェブサイト
411	33404	F118310105646	福井医療大学	Fukui Health Science University	910-3190	福井県福井市江上町55-13-1	0776-59-2200	https://www.fukui-hsu.ac.jp/			36.129657	136.165943	公式ウェブサイト
412	13501	F119110105676	山梨大学	University of Yamanashi	400-8510	山梨県甲府市武田4-4-37	055-252-1111	https://www.yamanashi.ac.jp/	甲府キャンパス		35.677556	138.57392	国立大学協会：一般社団法人国立大学協会概要’22（会員名簿），＜https://www.janu.jp/wp/wp-content/uploads/2022/10/members_20221001.pdf＞
413	23501	F119210105683	都留文科大学	Tsuru University	402-8555	山梨県都留市田原3丁目8-1	0554-43-4341	https://www.tsuru.ac.jp/			35.538952	138.896434	公立大学協会：会員校一覧，＜https://www.kodaikyo.org/?page_id=718＞
414	23503	F119210105692	山梨県立大学	Yamanashi Prefectural University	400-0035	山梨県甲府市飯田5丁目11番1号	055-224-5261	https://www.yamanashi-ken.ac.jp/	飯田キャンパス		35.663622	138.555821	公立大学協会：会員校一覧，＜https://www.kodaikyo.org/?page_id=718＞
415	33402	F119310105707	山梨学院大学	Yamanashi Gakuin University	400-8575	山梨県甲府市酒折2-4-5	055-224-1234	https://www.ygu.ac.jp/	酒折キャンパス		35.656643	138.601002	公式ウェブサイト
416	33502	F119310105716	身延山大学	Minobusan University	409-2597	山梨県南巨摩郡身延町身延3567	0556-62-0107	https://www.min.ac.jp/			35.381528	138.427617	公式ウェブサイト
417	33503	F119310105725	山梨英和大学	Yamanashi Eiwa College	400-8555	山梨県甲府市横根町888	055-223-6020	https://www.yamanashi-eiwa.ac.jp/			35.661634	138.613257	公式ウェブサイト
418	33504	F119310105734	健康科学大学	Health Science University	401-0380	山梨県南都留郡富士河口湖町小立7187	0555-83-5200	https://www.kenkoudai.ac.jp/	富士山キャンパス		35.464404	138.743614	公式ウェブサイト
419	13601	F120110105771	信州大学	Shinshu University	390-8621	長野県松本市旭3-1-1	0263-35-4600	https://www.shinshu-u.ac.jp/	松本キャンパス		36.250057	137.97894	国立大学協会：一般社団法人国立大学協会概要’22（会員名簿），＜https://www.janu.jp/wp/wp-content/uploads/2022/10/members_20221001.pdf＞
420	23604	F120210105788	公立諏訪東京理科大学	Suwa University of Science	391-0292	長野県茅野市豊平5000-1	0266-73-1201	https://www.sus.ac.jp/			36.007798	138.183301	公立大学協会：会員校一覧，＜https://www.kodaikyo.org/?page_id=718＞
421	23603	F120210105797	長野県立大学	The University of Nagano	380-8525	長野県長野市三輪8丁目49番7号	026-217-2240	https://www.u-nagano.ac.jp/	三輪キャンパス		36.666083	138.200451	公立大学協会：会員校一覧，＜https://www.kodaikyo.org/?page_id=718＞
422	23601	F120210105804	長野県看護大学	Nagano College of Nursing	399-4117	長野県駒ヶ根市赤穂1694番地	0265-81-5100	https://www.nagano-nurs.ac.jp/			35.745965	137.933634	公立大学協会：会員校一覧，＜https://www.kodaikyo.org/?page_id=718＞
423	23602	F120210105813	長野大学	Nagano University	386-1298	長野県上田市下之郷658-1	0268-39-0001	https://www.nagano.ac.jp/			36.369159	138.223143	公立大学協会：会員校一覧，＜https://www.kodaikyo.org/?page_id=718＞
424	33602	F120310105820	松本歯科大学	Matsumoto Dental University	399-0781	長野県塩尻市広丘郷原1780	0263-52-3100	https://www.mdu.ac.jp/			36.127357	137.940369	公式ウェブサイト
425	33604	F120310105839	松本大学	Matsumoto University	390-1295	長野県松本市新村2095-1	0263-48-7200	https://www.matsumoto-u.ac.jp/			36.2203199	137.9111492	公式ウェブサイト
426	33605	F120310105848	清泉大学	Seisen University	381-0085	長野県長野市上野2-120-8	026-295-5665	https://u-seisen.ac.jp/	上野キャンパス	2025年4月改称・共学化（旧・清泉女学院大学，Seisen Jogakuin College）	36.686137	138.236277	公式ウェブサイト
427	33606	F120310105857	佐久大学	Saku University	385-0022	長野県佐久市岩村田2384	0267-68-6680	https://www.saku.ac.jp/			36.265991	138.463273	公式ウェブサイト
428	33607	F120310105866	長野保健医療大学	Nagano University of Health and Medicine	381-2227	長野県長野市川中島町今井原11-1	026-283-6111	https://shitoku.ac.jp/			36.593788	138.145155	公式ウェブサイト
429	33608	F120310111868	松本看護大学	Matsumoto College of Nursing	399-0033	長野県松本市笹賀3118	0263-58-4417	https://www.mcon.ac.jp/			36.1753218	137.9351863	公式ウェブサイト
430	13701	F121110105976	岐阜大学	Gifu University	501-1193	岐阜県岐阜市柳戸1番1	058-230-1111	https://www.gifu-u.ac.jp/			35.466224	136.736575	国立大学協会：一般社団法人国立大学協会概要’22（会員名簿），＜https://www.janu.jp/wp/wp-content/uploads/2022/10/members_20221001.pdf＞
431	23701	F121210105983	岐阜薬科大学	Gifu Pharmaceutical University	501-1196	岐阜県岐阜市大学西1丁目25番地4	058-230-8100	https://www.gifu-pu.ac.jp/	大学本部・大学院		35.465692	136.733819	公立大学協会：会員校一覧，＜https://www.kodaikyo.org/?page_id=718＞
432	23702	F121210105992	岐阜県立看護大学	Gifu College of Nursing	501-6295	岐阜県羽島市江吉良町3047番1	058-397-2300	https://www.gifu-cn.ac.jp/			35.306401	136.686259	公立大学協会：会員校一覧，＜https://www.kodaikyo.org/?page_id=718＞
433	23703	F121210106009	情報科学芸術大学院大学	Institute of Advanced Media Arts and Sciences	503-0006	岐阜県大垣市加賀野4丁目1番地7	0584-75-6600	https://www.iamas.ac.jp/			35.367567	136.639469	公立大学協会：会員校一覧，＜https://www.kodaikyo.org/?page_id=718＞
434	33706	F121310106016	中京学院大学	Chukyo Gakuin University	509-9195	岐阜県中津川市千旦林1-104	0573-66-3121	https://www.chukyogakuin-u.ac.jp/	中津川キャンパス		35.46778	137.489513	公式ウェブサイト
435	33701	F121310106025	岐阜協立大学	Gifu Kyoritsu University	503-8550	岐阜県大垣市北方町5-50	0584-77-3511	https://www.gku.ac.jp/	北方キャンパス		35.394411	136.619777	公式ウェブサイト
436	33702	F121310106034	岐阜女子大学	Gifu Women’s University	501-2592	岐阜県岐阜市太郎丸80	058-229-2211	https://gijodai.jp/			35.500316	136.807491	公式ウェブサイト
437	33703	F121310106043	朝日大学	Asahi University	501-0296	岐阜県瑞穂市穂積1851	058-329-1111	https://www.asahi-u.ac.jp/			35.381766	136.690565	公式ウェブサイト
438	33704	F121310106052	岐阜聖徳学園大学	Gifu Shotoku Gakuen University	501-6194	岐阜県岐阜市柳津町高桑西1-1	058-279-0804	https://www.shotoku.ac.jp/	羽島キャンパス		35.361317	136.706824	公式ウェブサイト
439	33705	F121310106061	東海学院大学	Tokai Gakuin University	504-8511	岐阜県各務原市那加桐野町5-68	058-389-2200	https://tokaigakuin-u.ac.jp/			35.424486	136.81728	公式ウェブサイト
440	33707	F121310106070	中部学院大学	Chubu Gakuin University	501-3993	岐阜県関市桐ヶ丘二丁目1番地	0575-24-2211	https://www.chubu-gu.ac.jp/	関キャンパス		35.458594	136.897892	公式ウェブサイト
441	33708	F121310106089	岐阜医療科学大学	Gifu University of Medical Science	501-3892	岐阜県関市市平賀字長峰795-1	0575-22-9401	https://www.u-gifu-ms.ac.jp/	関キャンパス		35.491047	136.951168	公式ウェブサイト
442	33709	F121310106098	岐阜保健大学	Gifu University of Health Science	500-8281	岐阜県岐阜市東鶉2丁目92番地	058-274-5001	https://www.gifuhoken.ac.jp/	岐阜キャンパス	2027年4月改称予定（日本保健大学）	35.384281	136.739983	公式ウェブサイト
443	33710	F121310106105	コー・イノベーション大学	Co-Innovation University	509-4225	岐阜県飛騨市古川町金森町11-15	0577-73-5252	https://coiu.ac.jp/	一号館	2026年4月開学	36.2361799	137.1878483	公式ウェブサイト
444	13801	F122110106224	静岡大学	Shizuoka University	422-8529	静岡県静岡市駿河区大谷836	054-237-1111	https://www.shizuoka.ac.jp/	静岡キャンパス		34.965406	138.4317	国立大学協会：一般社団法人国立大学協会概要’22（会員名簿），＜https://www.janu.jp/wp/wp-content/uploads/2022/10/members_20221001.pdf＞
445	13802	F122110106233	浜松医科大学	Hamamatsu University School of Medicine	431-3192	静岡県浜松市東区半田山1-20-1	053-435-2111	https://www.hama-med.ac.jp/			34.770587	137.743291	国立大学協会：一般社団法人国立大学協会概要’22（会員名簿），＜https://www.janu.jp/wp/wp-content/uploads/2022/10/members_20221001.pdf＞
446	23805	F122210106240	静岡県立農林環境専門職大学	Shizuoka Professional University of Agriculture	438-8577	静岡県磐田市富丘678-1	0538-31-7901	https://shizuoka-norin-u.ac.jp/			34.730168	137.845729	公立大学協会：会員校一覧，＜https://www.kodaikyo.org/?page_id=718＞
447	23803	F122210106259	静岡県立大学	University of Shizuoka	422-8526	静岡県静岡市駿河区谷田52-1	054-264-5102	https://www.u-shizuoka-ken.ac.jp/	草薙キャンパス		34.9947025	138.4463899	公立大学協会：会員校一覧，＜https://www.kodaikyo.org/?page_id=718＞
448	23804	F122210106268	静岡文化芸術大学	Shizuoka University of Art and Culture	430-8533	静岡県浜松市中区中央二丁目1番1号	053-457-6111	https://www.suac.ac.jp/			34.712635	137.738628	公立大学協会：会員校一覧，＜https://www.kodaikyo.org/?page_id=718＞
449	23806	F122210111877	静岡社会健康医学大学院大学	Shizuoka Graduate University of Public Health	420-0881	静岡県静岡市葵区北安東4-27-2	054-295-5400	https://s-sph.ac.jp/			35.0017752	138.3866889	公立大学協会：会員校一覧，＜https://www.kodaikyo.org/?page_id=718＞
450	33811	F122310106275	光産業創成大学院大学	The Graduate School for the Creation of New Photonics Industries	431-1202	静岡県浜松市西区呉松町1955-1	053-484-2501	https://www.gpi.ac.jp/			34.776737	137.629943	静岡県：静岡県学校名簿，＜https://www.pref.shizuoka.jp/kodomokyoiku/school/kyoiku/1003789/1003799/kyoikumeibo/1031399.html＞
451	33809	F122310106284	静岡福祉大学	Shizuoka University of Welfare	425-8611	静岡県焼津市本中根549-1	054-623-7000	https://www.suw.ac.jp/			34.829321	138.297945	静岡県：静岡県学校名簿，＜https://www.pref.shizuoka.jp/kodomokyoiku/school/kyoiku/1003789/1003799/kyoikumeibo/1031399.html＞
452	33810	F122310106293	浜松学院大学	Hamamatsu Gakuin University	432-8012	静岡県浜松市中区布橋3-2-3	053-450-7000	https://hamagaku.ac.jp/hgu/			34.720682	137.713288	静岡県：静岡県学校名簿，＜https://www.pref.shizuoka.jp/kodomokyoiku/school/kyoiku/1003789/1003799/kyoikumeibo/1031399.html＞
453	33808	F122310106300	静岡英和学院大学	Shizuoka Eiwa Gakuin University	422-8545	静岡県静岡市駿河区池田1769	054-261-9201	https://www.shizuoka-eiwa.ac.jp/			34.982668	138.437457	静岡県：静岡県学校名簿，＜https://www.pref.shizuoka.jp/kodomokyoiku/school/kyoiku/1003789/1003799/kyoikumeibo/1031399.html＞
454	33801	F122310106319	常葉大学	Tokoha University	422-8581	静岡県静岡市駿河区弥生町6-1	054-297-6100	https://www.tokoha-u.ac.jp/	静岡草薙キャンパス		35.004991	138.437736	静岡県：静岡県学校名簿，＜https://www.pref.shizuoka.jp/kodomokyoiku/school/kyoiku/1003789/1003799/kyoikumeibo/1031399.html＞
455	33803	F122310106328	静岡理工科大学	Shizuoka Institute of Science and Technology	437-8555	静岡県袋井市豊沢2200-2	0538-45-0111	https://www.sist.ac.jp/	袋井キャンパス		34.73825	137.961407	静岡県：静岡県学校名簿，＜https://www.pref.shizuoka.jp/kodomokyoiku/school/kyoiku/1003789/1003799/kyoikumeibo/1031399.html＞
456	33804	F122310106337	聖隷クリストファー大学	Seirei Christopher University	433-8558	静岡県浜松市北区三方原町3453	053-439-1400	https://www.seirei.ac.jp/			34.791882	137.692756	静岡県：静岡県学校名簿，＜https://www.pref.shizuoka.jp/kodomokyoiku/school/kyoiku/1003789/1003799/kyoikumeibo/1031399.html＞
457	33805	F122310106346	静岡産業大学	Shizuoka Sangyo University	426-8668	静岡県藤枝市駿河台4-1-1	054-645-0191	https://www.ssu.ac.jp/	藤枝キャンパス		34.8607632	138.2284544	静岡県：静岡県学校名簿，＜https://www.pref.shizuoka.jp/kodomokyoiku/school/kyoiku/1003789/1003799/kyoikumeibo/1031399.html＞
458	13901	F123110106429	名古屋大学	Nagoya University	464-8601	愛知県名古屋市千種区不老町	052-789-5111	https://www.nagoya-u.ac.jp/	東山キャンパス		35.153491	136.967573	国立大学協会：一般社団法人国立大学協会概要’22（会員名簿），＜https://www.janu.jp/wp/wp-content/uploads/2022/10/members_20221001.pdf＞
459	13903	F123110106438	名古屋工業大学	Nagoya Institute of Technology	466-8555	愛知県名古屋市昭和区御器所町	052-732-2111	https://www.nitech.ac.jp/			35.157135	136.924838	国立大学協会：一般社団法人国立大学協会概要’22（会員名簿），＜https://www.janu.jp/wp/wp-content/uploads/2022/10/members_20221001.pdf＞
460	13902	F123110106447	愛知教育大学	Aichi University of Education	448-8542	愛知県刈谷市井ケ谷町広沢1	0566-26-2111	https://www.aichi-edu.ac.jp/			35.051864	137.050393	国立大学協会：一般社団法人国立大学協会概要’22（会員名簿），＜https://www.janu.jp/wp/wp-content/uploads/2022/10/members_20221001.pdf＞
461	13904	F123110106456	豊橋技術科学大学	Toyohashi University of Technology	441-8580	愛知県豊橋市天伯町雲雀ヶ丘1-1	0532-47-0111	https://www.tut.ac.jp/			34.701756	137.408635	国立大学協会：一般社団法人国立大学協会概要’22（会員名簿），＜https://www.janu.jp/wp/wp-content/uploads/2022/10/members_20221001.pdf＞
462	23903	F123210106463	名古屋市立大学	Nagoya City University	467-8601	愛知県名古屋市瑞穂区瑞穂町字川澄1	052-853-8005	https://www.nagoya-cu.ac.jp/	桜山（川澄）キャンパス		35.138965	136.934405	公立大学協会：会員校一覧，＜https://www.kodaikyo.org/?page_id=718＞
463	23902	F123210106472	愛知県立芸術大学	Aichi University of the Arts	480-1194	愛知県長久手市岩作三ヶ峯1-114	0561-76-2492	https://www.aichi-fam-u.ac.jp/			35.168343	137.069257	公立大学協会：会員校一覧，＜https://www.kodaikyo.org/?page_id=718＞
464	23901	F123210106481	愛知県立大学	Aichi Prefectural University	480-1198	愛知県長久手市茨ヶ廻間1522-3	0561-76-8811	https://www.aichi-pu.ac.jp/	長久手キャンパス		35.182046	137.086797	公立大学協会：会員校一覧，＜https://www.kodaikyo.org/?page_id=718＞
465	33934	F123310106498	愛知工科大学	Aichi University of Technology	443-0047	愛知県蒲郡市西迫町馬乗50-2	0533-68-1135	https://www.aut.ac.jp/		2027年度学生募集停止	34.8319863	137.1936179	公式ウェブサイト
466	33935	F123310106504	名古屋産業大学	Nagoya Sangyo University	488-8711	愛知県尾張旭市新居町山の田3255-5	0561-55-5101	https://www.nagoya-su.ac.jp/		専門職学科あり	35.219639	137.030922	公式ウェブサイト
467	33936	F123310106513	人間環境大学	University of Human Environments	444-3505	愛知県岡崎市本宿町上三本松6-2	0564-48-7811	https://www.uhe.ac.jp/	岡崎キャンパス		34.897489	137.264008	公式ウェブサイト
468	33933	F123310106522	名古屋文理大学	Nagoya Bunri University	492-8520	愛知県稲沢市稲沢町前田365	0587-23-2400	https://www.nagoya-bunri.ac.jp/			35.248324	136.791412	公式ウェブサイト
469	33928	F123310106531	愛知みずほ大学	Aichi Mizuho College	467-0867	愛知県名古屋市瑞穂区春敲町2-13	052-882-1123	https://www.mizuho-c.ac.jp/c/			35.127284	136.921846	公式ウェブサイト
470	33902	F123310106540	愛知学院大学	Aichi Gakuin University	470-0195	愛知県日進市岩崎町阿良池12	0561-73-1111	https://www.agu.ac.jp/	日進キャンパス		35.161123	137.046995	公式ウェブサイト
471	33903	F123310106559	愛知工業大学	Aichi Institute of Technology	470-0392	愛知県豊田市八草町八千草1247	0565-48-8121	https://www.ait.ac.jp/	八草キャンパス		35.184196	137.113409	公式ウェブサイト
472	33905	F123310106568	金城学院大学	Kinjo Gakuin University	463-8521	愛知県名古屋市守山区大森二丁目1723番地	052-798-0180	https://www.kinjo-u.ac.jp/ja/		2029年4月共学化予定	35.209687	136.995751	公式ウェブサイト
473	33906	F123310106577	椙山女学園大学	Sugiyama Jogakuen University	464-8662	愛知県名古屋市千種区星が丘元町17番3号	052-781-1186	https://www.sugiyama-u.ac.jp/	星が丘キャンパス		35.159282	136.987314	公式ウェブサイト
474	33907	F123310106586	大同大学	Daido University	457-8530	愛知県名古屋市南区滝春町10番地3	052-612-6111	https://www.daido-it.ac.jp/			35.079001	136.906506	公式ウェブサイト
475	33908	F123310106595	中京大学	Chukyo University	466-8666	愛知県名古屋市昭和区八事本町101-2	052-835-7111	https://www.chukyo-u.ac.jp/	名古屋キャンパス		35.13814	136.965803	公式ウェブサイト
476	33911	F123310106602	同朋大学	Doho University	453-8540	愛知県名古屋市中村区稲葉地町7-1	052-411-1113	https://www.doho.ac.jp/			35.163759	136.843385	公式ウェブサイト
477	33912	F123310106611	名古屋学院大学	Nagoya Gakuin University	456-8612	愛知県名古屋市熱田区熱田西町1番25号	052-678-4080	https://www.ngu.jp/	名古屋キャンパスしろとり		35.128484	136.899267	公式ウェブサイト
478	33914	F123310106620	名古屋商科大学	Nagoya University of Commerce and Business	470-0193	愛知県日進市米野木町三ヶ峯	0561-73-2111	https://www.nucba.ac.jp/	日進キャンパス		35.154847	137.092833	公式ウェブサイト
479	33915	F123310106639	名古屋葵大学	Nagoya Aoi University	467-8610	愛知県名古屋市瑞穂区汐路町3-40	052-852-1111	https://www.nagoya-aoi.ac.jp/		2025年4月改称・共学化（旧・名古屋女子大学，Nagoya Women’s University）	35.131822	136.938051	公式ウェブサイト
480	33917	F123310106648	南山大学	Nanzan University	466-8673	愛知県名古屋市昭和区山里町18	052-832-3111	https://www.nanzan-u.ac.jp/			35.148693	136.962841	公式ウェブサイト
481	33918	F123310106657	日本福祉大学	Nihon Fukushi University	470-3295	愛知県知多郡美浜町奥田字会下前35-6	0569-87-2211	https://www.n-fukushi.ac.jp/	美浜キャンパス		34.7840151	136.8684978	公式ウェブサイト
482	33919	F123310106666	名城大学	Meijo University	468-8502	愛知県名古屋市天白区塩釜口一丁目501番地	052-832-1151	https://www.meijo-u.ac.jp/	天白キャンパス		35.135429	136.975098	公式ウェブサイト
483	33922	F123310106675	名古屋音楽大学	Nagoya College of Music	453-8540	愛知県名古屋市中村区稲葉地町7-1	052-411-1115	https://www.meion.ac.jp/			35.163329	136.843066	公式ウェブサイト
484	33924	F123310106684	豊田工業大学	Toyota Technological Institute	468-8511	愛知県名古屋市天白区久方二丁目12番地1	052-802-1111	https://www.toyota-ti.ac.jp/			35.106576	136.983018	公式ウェブサイト
485	33925	F123310106693	名古屋外国語大学	Nagoya University of Foreign Studies	470-0197	愛知県日進市岩崎町竹ノ山57	0561-74-1111	https://www.nufs.ac.jp/	日進キャンパス		35.158643	137.042182	公式ウェブサイト
486	33926	F123310106700	名古屋造形大学	Nagoya Zokei University of Art and Design	462-8545	愛知県名古屋市北区名城2丁目4番1	052-908-1630	https://www.nzu.ac.jp/			35.1904798	136.9047453	公式ウェブサイト
487	33927	F123310106719	愛知産業大学	Aichi Sangyo University	444-0005	愛知県岡崎市岡町原山12-5	0564-48-4511	https://www.asu.ac.jp/			34.920954	137.222589	公式ウェブサイト
488	33929	F123310106728	東海学園大学	Tokaigakuen University	470-0207	愛知県みよし市福谷町西ノ洞21番地233	0561-36-5555	https://www.tokaigakuen-u.ac.jp/	三好キャンパス		35.126552	137.10219	公式ウェブサイト
489	33930	F123310106737	豊橋創造大学	Toyohashi Sozo University	440-8511	愛知県豊橋市牛川町松下20-1	0532-54-2111	https://www.sozo.ac.jp/			34.776707	137.410313	公式ウェブサイト
490	33937	F123310106746	愛知東邦大学	Aichi Toho University	465-8515	愛知県名古屋市名東区平和が丘三丁目11番地	052-782-1241	https://www.aichi-toho.ac.jp/			35.170095	136.987066	公式ウェブサイト
491	33938	F123310106755	星城大学	Seijoh University	476-8588	愛知県東海市富貴ノ台2丁目172番地	052-601-6000	https://www.seijoh-u.ac.jp/	本部東海キャンパス		35.03328	136.90108	公式ウェブサイト
492	33931	F123310106764	愛知文教大学	Aichi Bunkyo University	485-8565	愛知県小牧市大草5969-3	0568-78-2211	https://www.abu.ac.jp/			35.300509	137.008092	公式ウェブサイト
493	33932	F123310106773	桜花学園大学	Ohkagakuen University	470-1193	愛知県豊明市栄町武侍48	0562-97-5503	https://www.ohkagakuen-u.ac.jp/			35.059313	136.975203	公式ウェブサイト
494	33901	F123310106782	愛知大学	Aichi University	453-8777	愛知県名古屋市中村区平池町4-60-6	052-564-6111	https://www.aichi-u.ac.jp/	名古屋キャンパス（メインキャンパス）	豊橋キャンパスをメインキャンパスとする場合あり	35.174623	136.927469	公式ウェブサイト
495	33904	F123310106791	愛知学泉大学	Aichi Gakusen University	444-8520	愛知県岡崎市舳越町上川成28	0564-34-1212	https://www.gakusen.ac.jp/u/	岡崎キャンパス		34.973355	137.144299	公式ウェブサイト
496	33909	F123310106808	至学館大学	Shigakkan University	474-8651	愛知県大府市横根町名高山55	0562-46-1291	https://www.sgk.ac.jp/			35.031034	136.971871	公式ウェブサイト
497	33910	F123310106817	中部大学	Chubu University	487-8501	愛知県春日井市松本町1200番地	0568-51-1111	https://www.chubu.ac.jp/	春日井キャンパス		35.273068	137.015401	公式ウェブサイト
498	33916	F123310106826	藤田医科大学	Fujita Health University	470-1192	愛知県豊明市沓掛町田楽ヶ窪1番地98	0562-93-2000	https://www.fujita-hu.ac.jp/			35.071172	137.001271	公式ウェブサイト
499	33913	F123310106835	名古屋芸術大学	Nagoya University of the Arts	481-8503	愛知県北名古屋市熊之庄古井281番地	0568-24-0315	https://www.nua.ac.jp/	東キャンパス		35.256075	136.881039	公式ウェブサイト
500	33920	F123310106844	愛知医科大学	Aichi Medical University	480-1195	愛知県長久手市岩作雁又1番地1	0561-62-3311	https://www.aichi-med-u.ac.jp/			35.193058	137.049614	公式ウェブサイト
501	33921	F123310106853	愛知淑徳大学	Aichi Shukutoku University	480-1197	愛知県長久手市片平二丁目9	0561-62-4111	https://www.aasa.ac.jp/	長久手キャンパス		35.157368	137.031727	公式ウェブサイト
502	33923	F123310106862	名古屋経済大学	Nagoya University of Economics	484-8504	愛知県犬山市内久保61-1	0568-67-0511	https://www.nagoya-ku.ac.jp/	犬山キャンパス		35.319686	136.953699	公式ウェブサイト
503	33939	F123310106871	名古屋学芸大学	Nagoya University of Arts and Sciences	470-0196	愛知県日進市岩崎町竹ノ山57	0561-75-7111	https://www.nuas.ac.jp/	日進キャンパス		35.157268	137.04218	公式ウェブサイト
504	33941	F123310106880	日本赤十字豊田看護大学	Japanese Red Cross Toyota College of Nursing	471-8565	愛知県豊田市白山町七曲12番33	0565-36-5111	https://www.rctoyota.ac.jp/			35.102815	137.119358	公式ウェブサイト
505	33942	F123310106899	修文大学	Shubun University	491-0938	愛知県一宮市日光町6	0586-45-2101	https://www.shubun.ac.jp/			35.301165	136.781949	公式ウェブサイト
506	33943	F123310106906	岡崎大学	Okazaki University	444-0015	愛知県岡崎市中町1-8-4	0564-22-1295	https://www.okazaki.ac.jp/		2026年4月改称・共学化（旧・岡崎女子大学，Okazaki Women’s University）	34.954909	137.18549	公式ウェブサイト
507	33944	F123310106915	一宮研伸大学	Ichinomiya Kenshin College	491-0063	愛知県一宮市常願通5丁目4番1	0586-28-8110	https://www.ikc.ac.jp/			35.316778	136.81134	公式ウェブサイト
508	33945	F123310106924	名古屋柳城女子大学 	Nagoya Ryujo Women’s University	466-0034	愛知県名古屋市昭和区明月町2-54	052-841-2635	https://www.ryujo-u.ac.jp/		2026年度学生募集停止	35.146504	136.932167	公式ウェブサイト
509	33946	F123310111883	名古屋国際工科専門職大学	International Professional University of Technology in Nagoya	450-0002	名古屋市中村区名駅4-27-1  総合校舎スパイラルタワーズ	052-561-2001	https://www.iput.ac.jp/nagoya/		2027年4月統合・改称予定（国際工科専門職大学）	35.168142	136.8857751	公式ウェブサイト
510	33947	F123310112016	愛知医療学院大学	Aichi Medical College of Rehabilitation	452-0931	愛知県清須市一場519	052-409-3311	https://amcr.ac.jp/		2024年4月開学	35.2207906	136.84033	公式ウェブサイト
511	14101	F124110107141	三重大学	Mie University	514-8507	三重県津市栗真町屋町1577	059-232-1211	https://www.mie-u.ac.jp/			34.746375	136.521508	国立大学協会：一般社団法人国立大学協会概要’22（会員名簿），＜https://www.janu.jp/wp/wp-content/uploads/2022/10/members_20221001.pdf＞
512	24102	F124210107158	三重県立看護大学	Mie Prefectural College Of Nursing	514-0116	三重県津市夢が丘1丁目1番地1	059-233-5600	https://www.mcn.ac.jp/			34.760112	136.488777	公立大学協会：会員校一覧，＜https://www.kodaikyo.org/?page_id=718＞
513	34103	F124310107165	四日市大学	Yokkaichi University	512-8512	三重県四日市市萱生町1200	059-365-6588	https://www.yokkaichi-u.ac.jp/			35.021617	136.60807	三重県：学校名簿，＜https://www.pref.mie.lg.jp/KYOIKU/HP/17720018716.htm＞
514	34101	F124310107174	皇學館大学	Kogakkan University	516-8555	三重県伊勢市神田久志本町1704	0596-22-0201	https://www.kogakkan-u.ac.jp/			34.484865	136.727084	三重県：学校名簿，＜https://www.pref.mie.lg.jp/KYOIKU/HP/17720018716.htm＞
515	34104	F124310107183	鈴鹿医療科学大学	Suzuka University of Medical Science	510-0293	三重県鈴鹿市岸岡町1001-1	059-383-8991	https://www.suzuka-u.ac.jp/	千代崎キャンパス		34.85868	136.59926	三重県：学校名簿，＜https://www.pref.mie.lg.jp/KYOIKU/HP/17720018716.htm＞
516	34105	F124310107192	鈴鹿大学	Suzuka University	510-0298	三重県鈴鹿市郡山町663-222	059-372-2121	https://www.suzuka.ac.jp/			34.8085696	136.5384059	三重県：学校名簿，＜https://www.pref.mie.lg.jp/KYOIKU/HP/17720018716.htm＞
517	34106	F124310107209	四日市看護医療大学	Yokkaichi Nursing and Medical Care University	512-8045	三重県四日市市萱生町1200	059-340-0700	https://www.y-nm.ac.jp/			35.022527	136.608346	三重県：学校名簿，＜https://www.pref.mie.lg.jp/KYOIKU/HP/17720018716.htm＞
518	14201	F125110107284	滋賀大学	Shiga University	522-8522	滋賀県彦根市馬場1-1-1	0749-27-1005	https://www.shiga-u.ac.jp/	彦根キャンパス		35.27815	136.246792	国立大学協会：一般社団法人国立大学協会概要’22（会員名簿），＜https://www.janu.jp/wp/wp-content/uploads/2022/10/members_20221001.pdf＞
519	14202	F125110107293	滋賀医科大学	Shiga University of Medical Science	520-2192	滋賀県大津市瀬田月輪町	077-548-2111	https://www.shiga-med.ac.jp/			34.973848	135.949953	国立大学協会：一般社団法人国立大学協会概要’22（会員名簿），＜https://www.janu.jp/wp/wp-content/uploads/2022/10/members_20221001.pdf＞
520	24201	F125210107308	滋賀県立大学	The University of Shiga Prefecture	522-8533	滋賀県彦根市八坂町2500番地	0749-28-8200	https://www.usp.ac.jp/			35.259904	136.219272	公立大学協会：会員校一覧，＜https://www.kodaikyo.org/?page_id=718＞
521	34201	F125310107315	成安造形大学	Seian University of Art and Design	520-0248	滋賀県大津市仰木の里東4-3-1	077-574-2111	https://www.seian.ac.jp/			35.109093	135.902314	滋賀県教育委員会：学校便覧，＜https://www.pref.shiga.lg.jp/edu/toukei/suuzidemiru/306679/＞
522	34203	F125310107324	聖泉大学	Seisen University	521-1123	滋賀県彦根市肥田町720	0749-43-3600	https://www.seisen.ac.jp/			35.20501	136.20469	滋賀県教育委員会：学校便覧，＜https://www.pref.shiga.lg.jp/edu/toukei/suuzidemiru/306679/＞
523	34204	F125310107333	長浜バイオ大学	Nagahama Institute of Bio-Science and Technology	526-0829	滋賀県長浜市田村町1266	0749-64-8100	https://www.nagahama-i-bio.ac.jp/			35.357071	136.280255	滋賀県教育委員会：学校便覧，＜https://www.pref.shiga.lg.jp/edu/toukei/suuzidemiru/306679/＞
524	34205	F125310107342	びわこ成蹊スポーツ大学	Biwako Seikei Sport College	520-0503	滋賀県大津市北比良1204	077-596-8410	https://biwako-seikei.jp/			35.227287	135.948431	滋賀県教育委員会：学校便覧，＜https://www.pref.shiga.lg.jp/edu/toukei/suuzidemiru/306679/＞
525	34206	F125310107351	びわこ学院大学	Biwako-Gakuin University	527-8533	滋賀県東近江市布施町29	0748-22-3388	https://www.biwakogakuin.ac.jp/			35.087838	136.185429	滋賀県教育委員会：学校便覧，＜https://www.pref.shiga.lg.jp/edu/toukei/suuzidemiru/306679/＞
